Kommunenummer	Stadnamn	Prioritet	Kommune	Fylke	Lat	Long	Nynorsk	Bokmål	Engelsk
101	Halden	25	Halden	Østfold	59.1234	11.3878	http://www.yr.no/stad/Noreg/Østfold/Halden/Halden/varsel.xml	http://www.yr.no/sted/Norge/Østfold/Halden/Halden/varsel.xml	http://www.yr.no/place/Norway/Østfold/Halden/Halden/forecast.xml
101	Brekke Sluse	40	Halden	Østfold	59.1464	11.5563	http://www.yr.no/stad/Noreg/Østfold/Halden/Brekke_Sluse/varsel.xml	http://www.yr.no/sted/Norge/Østfold/Halden/Brekke_Sluse/varsel.xml	http://www.yr.no/place/Norway/Østfold/Halden/Brekke_Sluse/forecast.xml
101	Prestebakke	40	Halden	Østfold	58.9908	11.5403	http://www.yr.no/stad/Noreg/Østfold/Halden/Prestebakke/varsel.xml	http://www.yr.no/sted/Norge/Østfold/Halden/Prestebakke/varsel.xml	http://www.yr.no/place/Norway/Østfold/Halden/Prestebakke/forecast.xml
101	Berg	50	Halden	Østfold	59.1365	11.3294	http://www.yr.no/stad/Noreg/Østfold/Halden/Berg/varsel.xml	http://www.yr.no/sted/Norge/Østfold/Halden/Berg/varsel.xml	http://www.yr.no/place/Norway/Østfold/Halden/Berg/forecast.xml
101	Sponvika	50	Halden	Østfold	59.0912	11.2301	http://www.yr.no/stad/Noreg/Østfold/Halden/Sponvika/varsel.xml	http://www.yr.no/sted/Norge/Østfold/Halden/Sponvika/varsel.xml	http://www.yr.no/place/Norway/Østfold/Halden/Sponvika/forecast.xml
104	Moss	25	Moss	Østfold	59.4326	10.6580	http://www.yr.no/stad/Noreg/Østfold/Moss/Moss/varsel.xml	http://www.yr.no/sted/Norge/Østfold/Moss/Moss/varsel.xml	http://www.yr.no/place/Norway/Østfold/Moss/Moss/forecast.xml
104	Gullholmen	40	Moss	Østfold	59.4337	10.5772	http://www.yr.no/stad/Noreg/Østfold/Moss/Gullholmen/varsel.xml	http://www.yr.no/sted/Norge/Østfold/Moss/Gullholmen/varsel.xml	http://www.yr.no/place/Norway/Østfold/Moss/Gullholmen/forecast.xml
104	Bevøya	60	Moss	Østfold	59.5108	10.6413	http://www.yr.no/stad/Noreg/Østfold/Moss/Bevøya/varsel.xml	http://www.yr.no/sted/Norge/Østfold/Moss/Bevøya/varsel.xml	http://www.yr.no/place/Norway/Østfold/Moss/Bevøya/forecast.xml
104	Dillingøya	60	Moss	Østfold	59.4304	10.7608	http://www.yr.no/stad/Noreg/Østfold/Moss/Dillingøya/varsel.xml	http://www.yr.no/sted/Norge/Østfold/Moss/Dillingøya/varsel.xml	http://www.yr.no/place/Norway/Østfold/Moss/Dillingøya/forecast.xml
104	Kambo	60	Moss	Østfold	59.4711	10.6959	http://www.yr.no/stad/Noreg/Østfold/Moss/Kambo/varsel.xml	http://www.yr.no/sted/Norge/Østfold/Moss/Kambo/varsel.xml	http://www.yr.no/place/Norway/Østfold/Moss/Kambo/forecast.xml
105	Sarpsborg	25	Sarpsborg	Østfold	59.2825	11.1099	http://www.yr.no/stad/Noreg/Østfold/Sarpsborg/Sarpsborg/varsel.xml	http://www.yr.no/sted/Norge/Østfold/Sarpsborg/Sarpsborg/varsel.xml	http://www.yr.no/place/Norway/Østfold/Sarpsborg/Sarpsborg/forecast.xml
105	Greåker	50	Sarpsborg	Østfold	59.2663	11.0411	http://www.yr.no/stad/Noreg/Østfold/Sarpsborg/Greåker/varsel.xml	http://www.yr.no/sted/Norge/Østfold/Sarpsborg/Greåker/varsel.xml	http://www.yr.no/place/Norway/Østfold/Sarpsborg/Greåker/forecast.xml
105	Hafslundsøy	50	Sarpsborg	Østfold	59.2905	11.1486	http://www.yr.no/stad/Noreg/Østfold/Sarpsborg/Hafslundsøy/varsel.xml	http://www.yr.no/sted/Norge/Østfold/Sarpsborg/Hafslundsøy/varsel.xml	http://www.yr.no/place/Norway/Østfold/Sarpsborg/Hafslundsøy/forecast.xml
105	Skjeberg	50	Sarpsborg	Østfold	59.2101	11.1906	http://www.yr.no/stad/Noreg/Østfold/Sarpsborg/Skjeberg/varsel.xml	http://www.yr.no/sted/Norge/Østfold/Sarpsborg/Skjeberg/varsel.xml	http://www.yr.no/place/Norway/Østfold/Sarpsborg/Skjeberg/forecast.xml
105	Yven	50	Sarpsborg	Østfold	59.2791	11.0712	http://www.yr.no/stad/Noreg/Østfold/Sarpsborg/Yven/varsel.xml	http://www.yr.no/sted/Norge/Østfold/Sarpsborg/Yven/varsel.xml	http://www.yr.no/place/Norway/Østfold/Sarpsborg/Yven/forecast.xml
106	Fredrikstad	25	Fredrikstad	Østfold	59.2167	10.9301	http://www.yr.no/stad/Noreg/Østfold/Fredrikstad/Fredrikstad/varsel.xml	http://www.yr.no/sted/Norge/Østfold/Fredrikstad/Fredrikstad/varsel.xml	http://www.yr.no/place/Norway/Østfold/Fredrikstad/Fredrikstad/forecast.xml
106	Strømtangen Fyr	40	Fredrikstad	Østfold	59.1499	10.8290	http://www.yr.no/stad/Noreg/Østfold/Fredrikstad/Strømtangen_Fyr/varsel.xml	http://www.yr.no/sted/Norge/Østfold/Fredrikstad/Strømtangen_Fyr/varsel.xml	http://www.yr.no/place/Norway/Østfold/Fredrikstad/Strømtangen_Fyr/forecast.xml
106	Kråkerøy	50	Fredrikstad	Østfold	59.1796	10.9289	http://www.yr.no/stad/Noreg/Østfold/Fredrikstad/Kråkerøy/varsel.xml	http://www.yr.no/sted/Norge/Østfold/Fredrikstad/Kråkerøy/varsel.xml	http://www.yr.no/place/Norway/Østfold/Fredrikstad/Kråkerøy/forecast.xml
106	Rolvsøy	50	Fredrikstad	Østfold	59.2645	11.0178	http://www.yr.no/stad/Noreg/Østfold/Fredrikstad/Rolvsøy/varsel.xml	http://www.yr.no/sted/Norge/Østfold/Fredrikstad/Rolvsøy/varsel.xml	http://www.yr.no/place/Norway/Østfold/Fredrikstad/Rolvsøy/forecast.xml
106	Engelsviken	50	Fredrikstad	Østfold	59.2503	10.7430	http://www.yr.no/stad/Noreg/Østfold/Fredrikstad/Engelsviken/varsel.xml	http://www.yr.no/sted/Norge/Østfold/Fredrikstad/Engelsviken/varsel.xml	http://www.yr.no/place/Norway/Østfold/Fredrikstad/Engelsviken/forecast.xml
111	Skjærhallen	30	Hvaler	Østfold	59.0239	11.0372	http://www.yr.no/stad/Noreg/Østfold/Hvaler/Skjærhallen/varsel.xml	http://www.yr.no/sted/Norge/Østfold/Hvaler/Skjærhallen/varsel.xml	http://www.yr.no/place/Norway/Østfold/Hvaler/Skjærhallen/forecast.xml
111	Herføl	50	Hvaler	Østfold	58.9923	11.0506	http://www.yr.no/stad/Noreg/Østfold/Hvaler/Herføl/varsel.xml	http://www.yr.no/sted/Norge/Østfold/Hvaler/Herføl/varsel.xml	http://www.yr.no/place/Norway/Østfold/Hvaler/Herføl/forecast.xml
111	Nedgården	50	Hvaler	Østfold	59.0156	11.0659	http://www.yr.no/stad/Noreg/Østfold/Hvaler/Nedgården/varsel.xml	http://www.yr.no/sted/Norge/Østfold/Hvaler/Nedgården/varsel.xml	http://www.yr.no/place/Norway/Østfold/Hvaler/Nedgården/forecast.xml
111	Vesterøy	50	Hvaler	Østfold	59.0925	10.8832	http://www.yr.no/stad/Noreg/Østfold/Hvaler/Vesterøy/varsel.xml	http://www.yr.no/sted/Norge/Østfold/Hvaler/Vesterøy/varsel.xml	http://www.yr.no/place/Norway/Østfold/Hvaler/Vesterøy/forecast.xml
111	Torbjørnskjær	60	Hvaler	Østfold	58.9953	10.7824	http://www.yr.no/stad/Noreg/Østfold/Hvaler/Torbjørnskjær/varsel.xml	http://www.yr.no/sted/Norge/Østfold/Hvaler/Torbjørnskjær/varsel.xml	http://www.yr.no/place/Norway/Østfold/Hvaler/Torbjørnskjær/forecast.xml
118	Fossby	30	Aremark	Østfold	59.2211	11.6986	http://www.yr.no/stad/Noreg/Østfold/Aremark/Fossby/varsel.xml	http://www.yr.no/sted/Norge/Østfold/Aremark/Fossby/varsel.xml	http://www.yr.no/place/Norway/Østfold/Aremark/Fossby/forecast.xml
118	Aspern	60	Aremark	Østfold	59.1549	11.7041	http://www.yr.no/stad/Noreg/Østfold/Aremark/Aspern/varsel.xml	http://www.yr.no/sted/Norge/Østfold/Aremark/Aspern/varsel.xml	http://www.yr.no/place/Norway/Østfold/Aremark/Aspern/forecast.xml
118	Store Le	60	Aremark	Østfold	59.2142	11.8436	http://www.yr.no/stad/Noreg/Østfold/Aremark/Store_Le/varsel.xml	http://www.yr.no/sted/Norge/Østfold/Aremark/Store_Le/varsel.xml	http://www.yr.no/place/Norway/Østfold/Aremark/Store_Le/forecast.xml
118	Strømsfoss	60	Aremark	Østfold	59.3001	11.6603	http://www.yr.no/stad/Noreg/Østfold/Aremark/Strømsfoss/varsel.xml	http://www.yr.no/sted/Norge/Østfold/Aremark/Strømsfoss/varsel.xml	http://www.yr.no/place/Norway/Østfold/Aremark/Strømsfoss/forecast.xml
118	Trollhøgda	60	Aremark	Østfold	59.2333	11.7870	http://www.yr.no/stad/Noreg/Østfold/Aremark/Trollhøgda/varsel.xml	http://www.yr.no/sted/Norge/Østfold/Aremark/Trollhøgda/varsel.xml	http://www.yr.no/place/Norway/Østfold/Aremark/Trollhøgda/forecast.xml
119	Ørje	30	Marker	Østfold	59.4765	11.6566	http://www.yr.no/stad/Noreg/Østfold/Marker/Ørje/varsel.xml	http://www.yr.no/sted/Norge/Østfold/Marker/Ørje/varsel.xml	http://www.yr.no/place/Norway/Østfold/Marker/Ørje/forecast.xml
119	Otteid	50	Marker	Østfold	59.3520	11.7110	http://www.yr.no/stad/Noreg/Østfold/Marker/Otteid/varsel.xml	http://www.yr.no/sted/Norge/Østfold/Marker/Otteid/varsel.xml	http://www.yr.no/place/Norway/Østfold/Marker/Otteid/forecast.xml
119	Klund	60	Marker	Østfold	59.5231	11.6372	http://www.yr.no/stad/Noreg/Østfold/Marker/Klund/varsel.xml	http://www.yr.no/sted/Norge/Østfold/Marker/Klund/varsel.xml	http://www.yr.no/place/Norway/Østfold/Marker/Klund/forecast.xml
119	Rødenes	60	Marker	Østfold	59.5868	11.5961	http://www.yr.no/stad/Noreg/Østfold/Marker/Rødenes/varsel.xml	http://www.yr.no/sted/Norge/Østfold/Marker/Rødenes/varsel.xml	http://www.yr.no/place/Norway/Østfold/Marker/Rødenes/forecast.xml
119	Øymark	60	Marker	Østfold	59.4184	11.6637	http://www.yr.no/stad/Noreg/Østfold/Marker/Øymark/varsel.xml	http://www.yr.no/sted/Norge/Østfold/Marker/Øymark/varsel.xml	http://www.yr.no/place/Norway/Østfold/Marker/Øymark/forecast.xml
121	Rømskog	30	Rømskog	Østfold	59.7485	11.8108	http://www.yr.no/stad/Noreg/Østfold/Rømskog/Rømskog/varsel.xml	http://www.yr.no/sted/Norge/Østfold/Rømskog/Rømskog/varsel.xml	http://www.yr.no/place/Norway/Østfold/Rømskog/Rømskog/forecast.xml
121	Røvasshøgda	60	Rømskog	Østfold	59.7595	11.9087	http://www.yr.no/stad/Noreg/Østfold/Rømskog/Røvasshøgda/varsel.xml	http://www.yr.no/sted/Norge/Østfold/Rømskog/Røvasshøgda/varsel.xml	http://www.yr.no/place/Norway/Østfold/Rømskog/Røvasshøgda/forecast.xml
121	Slavasshøgda	60	Rømskog	Østfold	59.6831	11.7322	http://www.yr.no/stad/Noreg/Østfold/Rømskog/Slavasshøgda/varsel.xml	http://www.yr.no/sted/Norge/Østfold/Rømskog/Slavasshøgda/varsel.xml	http://www.yr.no/place/Norway/Østfold/Rømskog/Slavasshøgda/forecast.xml
121	Trandumsætra	60	Rømskog	Østfold	59.7789	11.8121	http://www.yr.no/stad/Noreg/Østfold/Rømskog/Trandumsætra/varsel.xml	http://www.yr.no/sted/Norge/Østfold/Rømskog/Trandumsætra/varsel.xml	http://www.yr.no/place/Norway/Østfold/Rømskog/Trandumsætra/forecast.xml
121	Trosterud	60	Rømskog	Østfold	59.6542	11.8608	http://www.yr.no/stad/Noreg/Østfold/Rømskog/Trosterud/varsel.xml	http://www.yr.no/sted/Norge/Østfold/Rømskog/Trosterud/varsel.xml	http://www.yr.no/place/Norway/Østfold/Rømskog/Trosterud/forecast.xml
122	Trøgstad	30	Trøgstad	Østfold	59.6387	11.3192	http://www.yr.no/stad/Noreg/Østfold/Trøgstad/Trøgstad/varsel.xml	http://www.yr.no/sted/Norge/Østfold/Trøgstad/Trøgstad/varsel.xml	http://www.yr.no/place/Norway/Østfold/Trøgstad/Trøgstad/forecast.xml
122	Båstad	50	Trøgstad	Østfold	59.6944	11.2964	http://www.yr.no/stad/Noreg/Østfold/Trøgstad/Båstad/varsel.xml	http://www.yr.no/sted/Norge/Østfold/Trøgstad/Båstad/varsel.xml	http://www.yr.no/place/Norway/Østfold/Trøgstad/Båstad/forecast.xml
122	Heiås	60	Trøgstad	Østfold	59.7017	11.2955	http://www.yr.no/stad/Noreg/Østfold/Trøgstad/Heiås/varsel.xml	http://www.yr.no/sted/Norge/Østfold/Trøgstad/Heiås/varsel.xml	http://www.yr.no/place/Norway/Østfold/Trøgstad/Heiås/forecast.xml
122	Mørkfoss	60	Trøgstad	Østfold	59.6574	11.2260	http://www.yr.no/stad/Noreg/Østfold/Trøgstad/Mørkfoss/varsel.xml	http://www.yr.no/sted/Norge/Østfold/Trøgstad/Mørkfoss/varsel.xml	http://www.yr.no/place/Norway/Østfold/Trøgstad/Mørkfoss/forecast.xml
122	Skjønhaug	60	Trøgstad	Østfold	59.6393	11.3162	http://www.yr.no/stad/Noreg/Østfold/Trøgstad/Skjønhaug/varsel.xml	http://www.yr.no/sted/Norge/Østfold/Trøgstad/Skjønhaug/varsel.xml	http://www.yr.no/place/Norway/Østfold/Trøgstad/Skjønhaug/forecast.xml
123	Spydeberg	30	Spydeberg	Østfold	59.6155	11.0826	http://www.yr.no/stad/Noreg/Østfold/Spydeberg/Spydeberg/varsel.xml	http://www.yr.no/sted/Norge/Østfold/Spydeberg/Spydeberg/varsel.xml	http://www.yr.no/place/Norway/Østfold/Spydeberg/Spydeberg/forecast.xml
123	Heli	60	Spydeberg	Østfold	59.5617	11.0967	http://www.yr.no/stad/Noreg/Østfold/Spydeberg/Heli/varsel.xml	http://www.yr.no/sted/Norge/Østfold/Spydeberg/Heli/varsel.xml	http://www.yr.no/place/Norway/Østfold/Spydeberg/Heli/forecast.xml
123	Hovin	60	Spydeberg	Østfold	59.6294	11.1206	http://www.yr.no/stad/Noreg/Østfold/Spydeberg/Hovin/varsel.xml	http://www.yr.no/sted/Norge/Østfold/Spydeberg/Hovin/varsel.xml	http://www.yr.no/place/Norway/Østfold/Spydeberg/Hovin/forecast.xml
123	Mørk	60	Spydeberg	Østfold	59.5231	11.0055	http://www.yr.no/stad/Noreg/Østfold/Spydeberg/Mørk/varsel.xml	http://www.yr.no/sted/Norge/Østfold/Spydeberg/Mørk/varsel.xml	http://www.yr.no/place/Norway/Østfold/Spydeberg/Mørk/forecast.xml
123	Tomter	60	Spydeberg	Østfold	59.6105	11.0372	http://www.yr.no/stad/Noreg/Østfold/Spydeberg/Tomter/varsel.xml	http://www.yr.no/sted/Norge/Østfold/Spydeberg/Tomter/varsel.xml	http://www.yr.no/place/Norway/Østfold/Spydeberg/Tomter/forecast.xml
124	Askim	25	Askim	Østfold	59.5818	11.1632	http://www.yr.no/stad/Noreg/Østfold/Askim/Askim/varsel.xml	http://www.yr.no/sted/Norge/Østfold/Askim/Askim/varsel.xml	http://www.yr.no/place/Norway/Østfold/Askim/Askim/forecast.xml
124	Kykkelsrud	60	Askim	Østfold	59.5803	11.1036	http://www.yr.no/stad/Noreg/Østfold/Askim/Kykkelsrud/varsel.xml	http://www.yr.no/sted/Norge/Østfold/Askim/Kykkelsrud/varsel.xml	http://www.yr.no/place/Norway/Østfold/Askim/Kykkelsrud/forecast.xml
124	Langnes	60	Askim	Østfold	59.6042	11.1252	http://www.yr.no/stad/Noreg/Østfold/Askim/Langnes/varsel.xml	http://www.yr.no/sted/Norge/Østfold/Askim/Langnes/varsel.xml	http://www.yr.no/place/Norway/Østfold/Askim/Langnes/forecast.xml
124	Solbergfoss	60	Askim	Østfold	59.6351	11.1545	http://www.yr.no/stad/Noreg/Østfold/Askim/Solbergfoss/varsel.xml	http://www.yr.no/sted/Norge/Østfold/Askim/Solbergfoss/varsel.xml	http://www.yr.no/place/Norway/Østfold/Askim/Solbergfoss/forecast.xml
124	Vamma	60	Askim	Østfold	59.5368	11.1679	http://www.yr.no/stad/Noreg/Østfold/Askim/Vamma/varsel.xml	http://www.yr.no/sted/Norge/Østfold/Askim/Vamma/varsel.xml	http://www.yr.no/place/Norway/Østfold/Askim/Vamma/forecast.xml
125	Mysen	30	Eidsberg	Østfold	59.5521	11.3261	http://www.yr.no/stad/Noreg/Østfold/Eidsberg/Mysen/varsel.xml	http://www.yr.no/sted/Norge/Østfold/Eidsberg/Mysen/varsel.xml	http://www.yr.no/place/Norway/Østfold/Eidsberg/Mysen/forecast.xml
125	Eidsberg	50	Eidsberg	Østfold	59.5498	11.3365	http://www.yr.no/stad/Noreg/Østfold/Eidsberg/Eidsberg/varsel.xml	http://www.yr.no/sted/Norge/Østfold/Eidsberg/Eidsberg/varsel.xml	http://www.yr.no/place/Norway/Østfold/Eidsberg/Eidsberg/forecast.xml
125	Hærland	50	Eidsberg	Østfold	59.5514	11.4045	http://www.yr.no/stad/Noreg/Østfold/Eidsberg/Hærland/varsel.xml	http://www.yr.no/sted/Norge/Østfold/Eidsberg/Hærland/varsel.xml	http://www.yr.no/place/Norway/Østfold/Eidsberg/Hærland/forecast.xml
125	Slitu	50	Eidsberg	Østfold	59.5840	11.2618	http://www.yr.no/stad/Noreg/Østfold/Eidsberg/Slitu/varsel.xml	http://www.yr.no/sted/Norge/Østfold/Eidsberg/Slitu/varsel.xml	http://www.yr.no/place/Norway/Østfold/Eidsberg/Slitu/forecast.xml
125	Trømborg	60	Eidsberg	Østfold	59.5045	11.3588	http://www.yr.no/stad/Noreg/Østfold/Eidsberg/Trømborg/varsel.xml	http://www.yr.no/sted/Norge/Østfold/Eidsberg/Trømborg/varsel.xml	http://www.yr.no/place/Norway/Østfold/Eidsberg/Trømborg/forecast.xml
127	Meieribyen	30	Skiptvet	Østfold	59.4731	11.1611	http://www.yr.no/stad/Noreg/Østfold/Skiptvet/Meieribyen/varsel.xml	http://www.yr.no/sted/Norge/Østfold/Skiptvet/Meieribyen/varsel.xml	http://www.yr.no/place/Norway/Østfold/Skiptvet/Meieribyen/forecast.xml
127	Glenne	60	Skiptvet	Østfold	59.4049	11.1770	http://www.yr.no/stad/Noreg/Østfold/Skiptvet/Glenne/varsel.xml	http://www.yr.no/sted/Norge/Østfold/Skiptvet/Glenne/varsel.xml	http://www.yr.no/place/Norway/Østfold/Skiptvet/Glenne/forecast.xml
127	Laum	60	Skiptvet	Østfold	59.4946	11.2000	http://www.yr.no/stad/Noreg/Østfold/Skiptvet/Laum/varsel.xml	http://www.yr.no/sted/Norge/Østfold/Skiptvet/Laum/varsel.xml	http://www.yr.no/place/Norway/Østfold/Skiptvet/Laum/forecast.xml
127	Onstad	60	Skiptvet	Østfold	59.5138	11.1861	http://www.yr.no/stad/Noreg/Østfold/Skiptvet/Onstad/varsel.xml	http://www.yr.no/sted/Norge/Østfold/Skiptvet/Onstad/varsel.xml	http://www.yr.no/place/Norway/Østfold/Skiptvet/Onstad/forecast.xml
127	Vister	60	Skiptvet	Østfold	59.5170	11.1647	http://www.yr.no/stad/Noreg/Østfold/Skiptvet/Vister/varsel.xml	http://www.yr.no/sted/Norge/Østfold/Skiptvet/Vister/varsel.xml	http://www.yr.no/place/Norway/Østfold/Skiptvet/Vister/forecast.xml
128	Rakkestad	30	Rakkestad	Østfold	59.4169	11.3542	http://www.yr.no/stad/Noreg/Østfold/Rakkestad/Rakkestad/varsel.xml	http://www.yr.no/sted/Norge/Østfold/Rakkestad/Rakkestad/varsel.xml	http://www.yr.no/place/Norway/Østfold/Rakkestad/Rakkestad/forecast.xml
128	Degernes	50	Rakkestad	Østfold	59.3534	11.4246	http://www.yr.no/stad/Noreg/Østfold/Rakkestad/Degernes/varsel.xml	http://www.yr.no/sted/Norge/Østfold/Rakkestad/Degernes/varsel.xml	http://www.yr.no/place/Norway/Østfold/Rakkestad/Degernes/forecast.xml
128	Os	60	Rakkestad	Østfold	59.4489	11.2386	http://www.yr.no/stad/Noreg/Østfold/Rakkestad/Os/varsel.xml	http://www.yr.no/sted/Norge/Østfold/Rakkestad/Os/varsel.xml	http://www.yr.no/place/Norway/Østfold/Rakkestad/Os/forecast.xml
128	Gautestad	60	Rakkestad	Østfold	59.3786	11.2988	http://www.yr.no/stad/Noreg/Østfold/Rakkestad/Gautestad/varsel.xml	http://www.yr.no/sted/Norge/Østfold/Rakkestad/Gautestad/varsel.xml	http://www.yr.no/place/Norway/Østfold/Rakkestad/Gautestad/forecast.xml
128	Skjekle	60	Rakkestad	Østfold	59.2727	11.4290	http://www.yr.no/stad/Noreg/Østfold/Rakkestad/Skjekle/varsel.xml	http://www.yr.no/sted/Norge/Østfold/Rakkestad/Skjekle/varsel.xml	http://www.yr.no/place/Norway/Østfold/Rakkestad/Skjekle/forecast.xml
135	Karlshus	30	Råde	Østfold	59.3506	10.8725	http://www.yr.no/stad/Noreg/Østfold/Råde/Karlshus/varsel.xml	http://www.yr.no/sted/Norge/Østfold/Råde/Karlshus/varsel.xml	http://www.yr.no/place/Norway/Østfold/Råde/Karlshus/forecast.xml
135	Saltnes	50	Råde	Østfold	59.2872	10.7519	http://www.yr.no/stad/Noreg/Østfold/Råde/Saltnes/varsel.xml	http://www.yr.no/sted/Norge/Østfold/Råde/Saltnes/varsel.xml	http://www.yr.no/place/Norway/Østfold/Råde/Saltnes/forecast.xml
135	Tomb	60	Råde	Østfold	59.3190	10.8153	http://www.yr.no/stad/Noreg/Østfold/Råde/Tomb/varsel.xml	http://www.yr.no/sted/Norge/Østfold/Råde/Tomb/varsel.xml	http://www.yr.no/place/Norway/Østfold/Råde/Tomb/forecast.xml
135	Spetalen	60	Råde	Østfold	59.2969	10.7678	http://www.yr.no/stad/Noreg/Østfold/Råde/Spetalen/varsel.xml	http://www.yr.no/sted/Norge/Østfold/Råde/Spetalen/varsel.xml	http://www.yr.no/place/Norway/Østfold/Råde/Spetalen/forecast.xml
135	Store Sletter	60	Råde	Østfold	59.3005	10.6683	http://www.yr.no/stad/Noreg/Østfold/Råde/Store_Sletter/varsel.xml	http://www.yr.no/sted/Norge/Østfold/Råde/Store_Sletter/varsel.xml	http://www.yr.no/place/Norway/Østfold/Råde/Store_Sletter/forecast.xml
136	Rygge	30	Rygge	Østfold	59.4049	10.6933	http://www.yr.no/stad/Noreg/Østfold/Rygge/Rygge/varsel.xml	http://www.yr.no/sted/Norge/Østfold/Rygge/Rygge/varsel.xml	http://www.yr.no/place/Norway/Østfold/Rygge/Rygge/forecast.xml
136	Dilling	50	Rygge	Østfold	59.3967	10.6943	http://www.yr.no/stad/Noreg/Østfold/Rygge/Dilling/varsel.xml	http://www.yr.no/sted/Norge/Østfold/Rygge/Dilling/varsel.xml	http://www.yr.no/place/Norway/Østfold/Rygge/Dilling/forecast.xml
136	Larkollen	50	Rygge	Østfold	59.3358	10.6679	http://www.yr.no/stad/Noreg/Østfold/Rygge/Larkollen/varsel.xml	http://www.yr.no/sted/Norge/Østfold/Rygge/Larkollen/varsel.xml	http://www.yr.no/place/Norway/Østfold/Rygge/Larkollen/forecast.xml
136	Rygge	50	Rygge	Østfold	59.4049	10.6933	http://www.yr.no/stad/Noreg/Østfold/Rygge/Rygge/varsel.xml	http://www.yr.no/sted/Norge/Østfold/Rygge/Rygge/varsel.xml	http://www.yr.no/place/Norway/Østfold/Rygge/Rygge/forecast.xml
136	Rygge	50	Rygge	Østfold	59.4049	10.6933	http://www.yr.no/stad/Noreg/Østfold/Rygge/Rygge/varsel.xml	http://www.yr.no/sted/Norge/Østfold/Rygge/Rygge/varsel.xml	http://www.yr.no/place/Norway/Østfold/Rygge/Rygge/forecast.xml
137	Kirkebygda	30	Våler	Østfold	59.4896	10.8746	http://www.yr.no/stad/Noreg/Østfold/Våler/Kirkebygda/varsel.xml	http://www.yr.no/sted/Norge/Østfold/Våler/Kirkebygda/varsel.xml	http://www.yr.no/place/Norway/Østfold/Våler/Kirkebygda/forecast.xml
137	Sperrebotn	50	Våler	Østfold	59.4506	10.7866	http://www.yr.no/stad/Noreg/Østfold/Våler/Sperrebotn/varsel.xml	http://www.yr.no/sted/Norge/Østfold/Våler/Sperrebotn/varsel.xml	http://www.yr.no/place/Norway/Østfold/Våler/Sperrebotn/forecast.xml
137	Svinndal	50	Våler	Østfold	59.4228	11.0168	http://www.yr.no/stad/Noreg/Østfold/Våler/Svinndal/varsel.xml	http://www.yr.no/sted/Norge/Østfold/Våler/Svinndal/varsel.xml	http://www.yr.no/place/Norway/Østfold/Våler/Svinndal/forecast.xml
137	Kjersund	60	Våler	Østfold	59.4171	10.7896	http://www.yr.no/stad/Noreg/Østfold/Våler/Kjersund/varsel.xml	http://www.yr.no/sted/Norge/Østfold/Våler/Kjersund/varsel.xml	http://www.yr.no/place/Norway/Østfold/Våler/Kjersund/forecast.xml
137	Veidal	60	Våler	Østfold	59.5109	10.9109	http://www.yr.no/stad/Noreg/Østfold/Våler/Veidal/varsel.xml	http://www.yr.no/sted/Norge/Østfold/Våler/Veidal/varsel.xml	http://www.yr.no/place/Norway/Østfold/Våler/Veidal/forecast.xml
138	Elvestad	30	Hobøl	Østfold	59.6226	10.9511	http://www.yr.no/stad/Noreg/Østfold/Hobøl/Elvestad/varsel.xml	http://www.yr.no/sted/Norge/Østfold/Hobøl/Elvestad/varsel.xml	http://www.yr.no/place/Norway/Østfold/Hobøl/Elvestad/forecast.xml
138	Knapstad	50	Hobøl	Østfold	59.6208	11.0296	http://www.yr.no/stad/Noreg/Østfold/Hobøl/Knapstad/varsel.xml	http://www.yr.no/sted/Norge/Østfold/Hobøl/Knapstad/varsel.xml	http://www.yr.no/place/Norway/Østfold/Hobøl/Knapstad/forecast.xml
138	Tomter	50	Hobøl	Østfold	59.6577	10.9952	http://www.yr.no/stad/Noreg/Østfold/Hobøl/Tomter/varsel.xml	http://www.yr.no/sted/Norge/Østfold/Hobøl/Tomter/varsel.xml	http://www.yr.no/place/Norway/Østfold/Hobøl/Tomter/forecast.xml
138	Knapstad	60	Hobøl	Østfold	59.6208	11.0296	http://www.yr.no/stad/Noreg/Østfold/Hobøl/Knapstad/varsel.xml	http://www.yr.no/sted/Norge/Østfold/Hobøl/Knapstad/varsel.xml	http://www.yr.no/place/Norway/Østfold/Hobøl/Knapstad/forecast.xml
138	Ringvoll	60	Hobøl	Østfold	59.5559	10.8428	http://www.yr.no/stad/Noreg/Østfold/Hobøl/Ringvoll/varsel.xml	http://www.yr.no/sted/Norge/Østfold/Hobøl/Ringvoll/varsel.xml	http://www.yr.no/place/Norway/Østfold/Hobøl/Ringvoll/forecast.xml
211	Vestby	30	Vestby	Akershus	59.6009	10.7484	http://www.yr.no/stad/Noreg/Akershus/Vestby/Vestby/varsel.xml	http://www.yr.no/sted/Norge/Akershus/Vestby/Vestby/varsel.xml	http://www.yr.no/place/Norway/Akershus/Vestby/Vestby/forecast.xml
211	Hvitsten	50	Vestby	Akershus	59.5973	10.6564	http://www.yr.no/stad/Noreg/Akershus/Vestby/Hvitsten/varsel.xml	http://www.yr.no/sted/Norge/Akershus/Vestby/Hvitsten/varsel.xml	http://www.yr.no/place/Norway/Akershus/Vestby/Hvitsten/forecast.xml
211	Hølen	50	Vestby	Akershus	59.5384	10.7395	http://www.yr.no/stad/Noreg/Akershus/Vestby/Hølen/varsel.xml	http://www.yr.no/sted/Norge/Akershus/Vestby/Hølen/varsel.xml	http://www.yr.no/place/Norway/Akershus/Vestby/Hølen/forecast.xml
211	Son	50	Vestby	Akershus	59.5203	10.6888	http://www.yr.no/stad/Noreg/Akershus/Vestby/Son/varsel.xml	http://www.yr.no/sted/Norge/Akershus/Vestby/Son/varsel.xml	http://www.yr.no/place/Norway/Akershus/Vestby/Son/forecast.xml
211	Garder	60	Vestby	Akershus	59.5797	10.8097	http://www.yr.no/stad/Noreg/Akershus/Vestby/Garder/varsel.xml	http://www.yr.no/sted/Norge/Akershus/Vestby/Garder/varsel.xml	http://www.yr.no/place/Norway/Akershus/Vestby/Garder/forecast.xml
213	Ski	25	Ski	Akershus	59.7181	10.8361	http://www.yr.no/stad/Noreg/Akershus/Ski/Ski/varsel.xml	http://www.yr.no/sted/Norge/Akershus/Ski/Ski/varsel.xml	http://www.yr.no/place/Norway/Akershus/Ski/Ski/forecast.xml
213	Kråkstad	50	Ski	Akershus	59.6799	10.8839	http://www.yr.no/stad/Noreg/Akershus/Ski/Kråkstad/varsel.xml	http://www.yr.no/sted/Norge/Akershus/Ski/Kråkstad/varsel.xml	http://www.yr.no/place/Norway/Akershus/Ski/Kråkstad/forecast.xml
213	Langhus	50	Ski	Akershus	59.7538	10.8465	http://www.yr.no/stad/Noreg/Akershus/Ski/Langhus/varsel.xml	http://www.yr.no/sted/Norge/Akershus/Ski/Langhus/varsel.xml	http://www.yr.no/place/Norway/Akershus/Ski/Langhus/forecast.xml
213	Siggerud	50	Ski	Akershus	59.7898	10.8822	http://www.yr.no/stad/Noreg/Akershus/Ski/Siggerud/varsel.xml	http://www.yr.no/sted/Norge/Akershus/Ski/Siggerud/varsel.xml	http://www.yr.no/place/Norway/Akershus/Ski/Siggerud/forecast.xml
213	Skotbu	50	Ski	Akershus	59.6636	10.9492	http://www.yr.no/stad/Noreg/Akershus/Ski/Skotbu/varsel.xml	http://www.yr.no/sted/Norge/Akershus/Ski/Skotbu/varsel.xml	http://www.yr.no/place/Norway/Akershus/Ski/Skotbu/forecast.xml
214	Ås	30	Ås	Akershus	59.6630	10.7916	http://www.yr.no/stad/Noreg/Akershus/Ås/Ås/varsel.xml	http://www.yr.no/sted/Norge/Akershus/Ås/Ås/varsel.xml	http://www.yr.no/place/Norway/Akershus/Ås/Ås/forecast.xml
214	Vinterbro	50	Ås	Akershus	59.7381	10.7713	http://www.yr.no/stad/Noreg/Akershus/Ås/Vinterbro/varsel.xml	http://www.yr.no/sted/Norge/Akershus/Ås/Vinterbro/varsel.xml	http://www.yr.no/place/Norway/Akershus/Ås/Vinterbro/forecast.xml
214	Kroer	60	Ås	Akershus	59.6367	10.8474	http://www.yr.no/stad/Noreg/Akershus/Ås/Kroer/varsel.xml	http://www.yr.no/sted/Norge/Akershus/Ås/Kroer/varsel.xml	http://www.yr.no/place/Norway/Akershus/Ås/Kroer/forecast.xml
214	Nordby	60	Ås	Akershus	59.7192	10.7735	http://www.yr.no/stad/Noreg/Akershus/Ås/Nordby/varsel.xml	http://www.yr.no/sted/Norge/Akershus/Ås/Nordby/varsel.xml	http://www.yr.no/place/Norway/Akershus/Ås/Nordby/forecast.xml
214	Melleby	60	Ås	Akershus	59.7043	10.7743	http://www.yr.no/stad/Noreg/Akershus/Ås/Melleby/varsel.xml	http://www.yr.no/sted/Norge/Akershus/Ås/Melleby/varsel.xml	http://www.yr.no/place/Norway/Akershus/Ås/Melleby/forecast.xml
215	Drøbak	25	Frogn	Akershus	59.6616	10.6332	http://www.yr.no/stad/Noreg/Akershus/Frogn/Drøbak/varsel.xml	http://www.yr.no/sted/Norge/Akershus/Frogn/Drøbak/varsel.xml	http://www.yr.no/place/Norway/Akershus/Frogn/Drøbak/forecast.xml
215	Heer	50	Frogn	Akershus	59.6826	10.6601	http://www.yr.no/stad/Noreg/Akershus/Frogn/Heer/varsel.xml	http://www.yr.no/sted/Norge/Akershus/Frogn/Heer/varsel.xml	http://www.yr.no/place/Norway/Akershus/Frogn/Heer/forecast.xml
215	Heer	50	Frogn	Akershus	59.6826	10.6601	http://www.yr.no/stad/Noreg/Akershus/Frogn/Heer/varsel.xml	http://www.yr.no/sted/Norge/Akershus/Frogn/Heer/varsel.xml	http://www.yr.no/place/Norway/Akershus/Frogn/Heer/forecast.xml
215	Oscarsborg	50	Frogn	Akershus	59.6710	10.6078	http://www.yr.no/stad/Noreg/Akershus/Frogn/Oscarsborg/varsel.xml	http://www.yr.no/sted/Norge/Akershus/Frogn/Oscarsborg/varsel.xml	http://www.yr.no/place/Norway/Akershus/Frogn/Oscarsborg/forecast.xml
215	Skiphelle	50	Frogn	Akershus	59.6371	10.6442	http://www.yr.no/stad/Noreg/Akershus/Frogn/Skiphelle/varsel.xml	http://www.yr.no/sted/Norge/Akershus/Frogn/Skiphelle/varsel.xml	http://www.yr.no/place/Norway/Akershus/Frogn/Skiphelle/forecast.xml
216	Nesoddtangen	30	Nesodden	Akershus	59.8641	10.6597	http://www.yr.no/stad/Noreg/Akershus/Nesodden/Nesoddtangen/varsel.xml	http://www.yr.no/sted/Norge/Akershus/Nesodden/Nesoddtangen/varsel.xml	http://www.yr.no/place/Norway/Akershus/Nesodden/Nesoddtangen/forecast.xml
216	Bjørnemyrdalen	50	Nesodden	Akershus	59.8314	10.6443	http://www.yr.no/stad/Noreg/Akershus/Nesodden/Bjørnemyrdalen/varsel.xml	http://www.yr.no/sted/Norge/Akershus/Nesodden/Bjørnemyrdalen/varsel.xml	http://www.yr.no/place/Norway/Akershus/Nesodden/Bjørnemyrdalen/forecast.xml
216	Fagerstrand	50	Nesodden	Akershus	59.7366	10.5953	http://www.yr.no/stad/Noreg/Akershus/Nesodden/Fagerstrand/varsel.xml	http://www.yr.no/sted/Norge/Akershus/Nesodden/Fagerstrand/varsel.xml	http://www.yr.no/place/Norway/Akershus/Nesodden/Fagerstrand/forecast.xml
216	Fjellstrand	50	Nesodden	Akershus	59.7927	10.6072	http://www.yr.no/stad/Noreg/Akershus/Nesodden/Fjellstrand/varsel.xml	http://www.yr.no/sted/Norge/Akershus/Nesodden/Fjellstrand/varsel.xml	http://www.yr.no/place/Norway/Akershus/Nesodden/Fjellstrand/forecast.xml
216	Skoklefall	60	Nesodden	Akershus	59.8452	10.6713	http://www.yr.no/stad/Noreg/Akershus/Nesodden/Skoklefall/varsel.xml	http://www.yr.no/sted/Norge/Akershus/Nesodden/Skoklefall/varsel.xml	http://www.yr.no/place/Norway/Akershus/Nesodden/Skoklefall/forecast.xml
217	Kolbotn	30	Oppegård	Akershus	59.8091	10.8042	http://www.yr.no/stad/Noreg/Akershus/Oppegård/Kolbotn/varsel.xml	http://www.yr.no/sted/Norge/Akershus/Oppegård/Kolbotn/varsel.xml	http://www.yr.no/place/Norway/Akershus/Oppegård/Kolbotn/forecast.xml
217	Oppegård	50	Oppegård	Akershus	59.8100	10.7974	http://www.yr.no/stad/Noreg/Akershus/Oppegård/Oppegård/varsel.xml	http://www.yr.no/sted/Norge/Akershus/Oppegård/Oppegård/varsel.xml	http://www.yr.no/place/Norway/Akershus/Oppegård/Oppegård/forecast.xml
217	Sofiemyr	50	Oppegård	Akershus	59.7958	10.8175	http://www.yr.no/stad/Noreg/Akershus/Oppegård/Sofiemyr/varsel.xml	http://www.yr.no/sted/Norge/Akershus/Oppegård/Sofiemyr/varsel.xml	http://www.yr.no/place/Norway/Akershus/Oppegård/Sofiemyr/forecast.xml
217	Svartskog	50	Oppegård	Akershus	59.7804	10.7388	http://www.yr.no/stad/Noreg/Akershus/Oppegård/Svartskog/varsel.xml	http://www.yr.no/sted/Norge/Akershus/Oppegård/Svartskog/varsel.xml	http://www.yr.no/place/Norway/Akershus/Oppegård/Svartskog/forecast.xml
217	Tårnåsen	50	Oppegård	Akershus	59.8171	10.8166	http://www.yr.no/stad/Noreg/Akershus/Oppegård/Tårnåsen/varsel.xml	http://www.yr.no/sted/Norge/Akershus/Oppegård/Tårnåsen/varsel.xml	http://www.yr.no/place/Norway/Akershus/Oppegård/Tårnåsen/forecast.xml
219	Sandvika	25	Bærum	Akershus	59.8893	10.5281	http://www.yr.no/stad/Noreg/Akershus/Bærum/Sandvika/varsel.xml	http://www.yr.no/sted/Norge/Akershus/Bærum/Sandvika/varsel.xml	http://www.yr.no/place/Norway/Akershus/Bærum/Sandvika/forecast.xml
219	Bekkestua	50	Bærum	Akershus	59.9161	10.5880	http://www.yr.no/stad/Noreg/Akershus/Bærum/Bekkestua/varsel.xml	http://www.yr.no/sted/Norge/Akershus/Bærum/Bekkestua/varsel.xml	http://www.yr.no/place/Norway/Akershus/Bærum/Bekkestua/forecast.xml
219	Lommedalen	50	Bærum	Akershus	59.9748	10.4692	http://www.yr.no/stad/Noreg/Akershus/Bærum/Lommedalen/varsel.xml	http://www.yr.no/sted/Norge/Akershus/Bærum/Lommedalen/varsel.xml	http://www.yr.no/place/Norway/Akershus/Bærum/Lommedalen/forecast.xml
219	Skui	50	Bærum	Akershus	59.9186	10.4538	http://www.yr.no/stad/Noreg/Akershus/Bærum/Skui/varsel.xml	http://www.yr.no/sted/Norge/Akershus/Bærum/Skui/varsel.xml	http://www.yr.no/place/Norway/Akershus/Bærum/Skui/forecast.xml
219	Vestmarksetra	60	Bærum	Akershus	59.8855	10.4307	http://www.yr.no/stad/Noreg/Akershus/Bærum/Vestmarksetra/varsel.xml	http://www.yr.no/sted/Norge/Akershus/Bærum/Vestmarksetra/varsel.xml	http://www.yr.no/place/Norway/Akershus/Bærum/Vestmarksetra/forecast.xml
220	Asker	30	Asker	Akershus	59.8359	10.4363	http://www.yr.no/stad/Noreg/Akershus/Asker/Asker/varsel.xml	http://www.yr.no/sted/Norge/Akershus/Asker/Asker/varsel.xml	http://www.yr.no/place/Norway/Akershus/Asker/Asker/forecast.xml
220	Borgen	50	Asker	Akershus	59.8292	10.4272	http://www.yr.no/stad/Noreg/Akershus/Asker/Borgen/varsel.xml	http://www.yr.no/sted/Norge/Akershus/Asker/Borgen/varsel.xml	http://www.yr.no/place/Norway/Akershus/Asker/Borgen/forecast.xml
220	Heggedal	50	Asker	Akershus	59.7842	10.4374	http://www.yr.no/stad/Noreg/Akershus/Asker/Heggedal/varsel.xml	http://www.yr.no/sted/Norge/Akershus/Asker/Heggedal/varsel.xml	http://www.yr.no/place/Norway/Akershus/Asker/Heggedal/forecast.xml
220	Nesøya	50	Asker	Akershus	59.8688	10.5293	http://www.yr.no/stad/Noreg/Akershus/Asker/Nesøya/varsel.xml	http://www.yr.no/sted/Norge/Akershus/Asker/Nesøya/varsel.xml	http://www.yr.no/place/Norway/Akershus/Asker/Nesøya/forecast.xml
220	Vollen	50	Asker	Akershus	59.8076	10.4856	http://www.yr.no/stad/Noreg/Akershus/Asker/Vollen/varsel.xml	http://www.yr.no/sted/Norge/Akershus/Asker/Vollen/varsel.xml	http://www.yr.no/place/Norway/Akershus/Asker/Vollen/forecast.xml
221	Bjørkelangen	30	Aurskog-Høland	Akershus	59.8833	11.5697	http://www.yr.no/stad/Noreg/Akershus/Aurskog-Høland/Bjørkelangen/varsel.xml	http://www.yr.no/sted/Norge/Akershus/Aurskog-Høland/Bjørkelangen/varsel.xml	http://www.yr.no/place/Norway/Akershus/Aurskog-Høland/Bjørkelangen/forecast.xml
221	Aurskog	50	Aurskog-Høland	Akershus	59.9254	11.4683	http://www.yr.no/stad/Noreg/Akershus/Aurskog-Høland/Aurskog/varsel.xml	http://www.yr.no/sted/Norge/Akershus/Aurskog-Høland/Aurskog/varsel.xml	http://www.yr.no/place/Norway/Akershus/Aurskog-Høland/Aurskog/forecast.xml
221	Fosser	50	Aurskog-Høland	Akershus	59.8174	11.4828	http://www.yr.no/stad/Noreg/Akershus/Aurskog-Høland/Fosser/varsel.xml	http://www.yr.no/sted/Norge/Akershus/Aurskog-Høland/Fosser/varsel.xml	http://www.yr.no/place/Norway/Akershus/Aurskog-Høland/Fosser/forecast.xml
221	Hemnes	50	Aurskog-Høland	Akershus	59.7181	11.4558	http://www.yr.no/stad/Noreg/Akershus/Aurskog-Høland/Hemnes/varsel.xml	http://www.yr.no/sted/Norge/Akershus/Aurskog-Høland/Hemnes/varsel.xml	http://www.yr.no/place/Norway/Akershus/Aurskog-Høland/Hemnes/forecast.xml
221	Setskog	50	Aurskog-Høland	Akershus	59.8252	11.7220	http://www.yr.no/stad/Noreg/Akershus/Aurskog-Høland/Setskog/varsel.xml	http://www.yr.no/sted/Norge/Akershus/Aurskog-Høland/Setskog/varsel.xml	http://www.yr.no/place/Norway/Akershus/Aurskog-Høland/Setskog/forecast.xml
226	Sørumsand	30	Sørum	Akershus	59.9837	11.2401	http://www.yr.no/stad/Noreg/Akershus/Sørum/Sørumsand/varsel.xml	http://www.yr.no/sted/Norge/Akershus/Sørum/Sørumsand/varsel.xml	http://www.yr.no/place/Norway/Akershus/Sørum/Sørumsand/forecast.xml
226	Blaker	50	Sørum	Akershus	60.0001	11.3019	http://www.yr.no/stad/Noreg/Akershus/Sørum/Blaker/varsel.xml	http://www.yr.no/sted/Norge/Akershus/Sørum/Blaker/varsel.xml	http://www.yr.no/place/Norway/Akershus/Sørum/Blaker/forecast.xml
226	Frogner	50	Sørum	Akershus	60.0232	11.1031	http://www.yr.no/stad/Noreg/Akershus/Sørum/Frogner/varsel.xml	http://www.yr.no/sted/Norge/Akershus/Sørum/Frogner/varsel.xml	http://www.yr.no/place/Norway/Akershus/Sørum/Frogner/forecast.xml
226	Rånåsfoss	50	Sørum	Akershus	60.0300	11.3371	http://www.yr.no/stad/Noreg/Akershus/Sørum/Rånåsfoss/varsel.xml	http://www.yr.no/sted/Norge/Akershus/Sørum/Rånåsfoss/varsel.xml	http://www.yr.no/place/Norway/Akershus/Sørum/Rånåsfoss/forecast.xml
226	Sørum	50	Sørum	Akershus	59.9856	11.2405	http://www.yr.no/stad/Noreg/Akershus/Sørum/Sørum/varsel.xml	http://www.yr.no/sted/Norge/Akershus/Sørum/Sørum/varsel.xml	http://www.yr.no/place/Norway/Akershus/Sørum/Sørum/forecast.xml
227	Fetsund	30	Fet	Akershus	59.9275	11.1628	http://www.yr.no/stad/Noreg/Akershus/Fet/Fetsund/varsel.xml	http://www.yr.no/sted/Norge/Akershus/Fet/Fetsund/varsel.xml	http://www.yr.no/place/Norway/Akershus/Fet/Fetsund/forecast.xml
227	Åkrane	50	Fet	Akershus	59.9385	11.1093	http://www.yr.no/stad/Noreg/Akershus/Fet/Åkrane/varsel.xml	http://www.yr.no/sted/Norge/Akershus/Fet/Åkrane/varsel.xml	http://www.yr.no/place/Norway/Akershus/Fet/Åkrane/forecast.xml
227	Gan	50	Fet	Akershus	59.8611	11.2261	http://www.yr.no/stad/Noreg/Akershus/Fet/Gan/varsel.xml	http://www.yr.no/sted/Norge/Akershus/Fet/Gan/varsel.xml	http://www.yr.no/place/Norway/Akershus/Fet/Gan/forecast.xml
227	Dalen	60	Fet	Akershus	59.8624	11.2270	http://www.yr.no/stad/Noreg/Akershus/Fet/Dalen/varsel.xml	http://www.yr.no/sted/Norge/Akershus/Fet/Dalen/varsel.xml	http://www.yr.no/place/Norway/Akershus/Fet/Dalen/forecast.xml
227	Ulverud	60	Fet	Akershus	59.8432	11.2443	http://www.yr.no/stad/Noreg/Akershus/Fet/Ulverud/varsel.xml	http://www.yr.no/sted/Norge/Akershus/Fet/Ulverud/varsel.xml	http://www.yr.no/place/Norway/Akershus/Fet/Ulverud/forecast.xml
228	Fjerdingby	30	Rælingen	Akershus	59.9223	11.0667	http://www.yr.no/stad/Noreg/Akershus/Rælingen/Fjerdingby/varsel.xml	http://www.yr.no/sted/Norge/Akershus/Rælingen/Fjerdingby/varsel.xml	http://www.yr.no/place/Norway/Akershus/Rælingen/Fjerdingby/forecast.xml
228	Blystadlia	50	Rælingen	Akershus	59.9301	11.0382	http://www.yr.no/stad/Noreg/Akershus/Rælingen/Blystadlia/varsel.xml	http://www.yr.no/sted/Norge/Akershus/Rælingen/Blystadlia/varsel.xml	http://www.yr.no/place/Norway/Akershus/Rælingen/Blystadlia/forecast.xml
228	Løvenstad	50	Rælingen	Akershus	59.9358	11.0268	http://www.yr.no/stad/Noreg/Akershus/Rælingen/Løvenstad/varsel.xml	http://www.yr.no/sted/Norge/Akershus/Rælingen/Løvenstad/varsel.xml	http://www.yr.no/place/Norway/Akershus/Rælingen/Løvenstad/forecast.xml
228	Nordby	50	Rælingen	Akershus	59.8665	11.0943	http://www.yr.no/stad/Noreg/Akershus/Rælingen/Nordby/varsel.xml	http://www.yr.no/sted/Norge/Akershus/Rælingen/Nordby/varsel.xml	http://www.yr.no/place/Norway/Akershus/Rælingen/Nordby/forecast.xml
228	Rælingen	50	Rælingen	Akershus	59.9248	11.0658	http://www.yr.no/stad/Noreg/Akershus/Rælingen/Rælingen/varsel.xml	http://www.yr.no/sted/Norge/Akershus/Rælingen/Rælingen/varsel.xml	http://www.yr.no/place/Norway/Akershus/Rælingen/Rælingen/forecast.xml
229	Sand	30	Enebakk	Akershus	59.7290	11.2053	http://www.yr.no/stad/Noreg/Akershus/Enebakk/Sand/varsel.xml	http://www.yr.no/sted/Norge/Akershus/Enebakk/Sand/varsel.xml	http://www.yr.no/place/Norway/Akershus/Enebakk/Sand/forecast.xml
229	Enebakk	50	Enebakk	Akershus	59.7631	11.1452	http://www.yr.no/stad/Noreg/Akershus/Enebakk/Enebakk/varsel.xml	http://www.yr.no/sted/Norge/Akershus/Enebakk/Enebakk/varsel.xml	http://www.yr.no/place/Norway/Akershus/Enebakk/Enebakk/forecast.xml
229	Flateby	50	Enebakk	Akershus	59.8328	11.1432	http://www.yr.no/stad/Noreg/Akershus/Enebakk/Flateby/varsel.xml	http://www.yr.no/sted/Norge/Akershus/Enebakk/Flateby/varsel.xml	http://www.yr.no/place/Norway/Akershus/Enebakk/Flateby/forecast.xml
229	Tangen	60	Enebakk	Akershus	59.7205	11.0548	http://www.yr.no/stad/Noreg/Akershus/Enebakk/Tangen/varsel.xml	http://www.yr.no/sted/Norge/Akershus/Enebakk/Tangen/varsel.xml	http://www.yr.no/place/Norway/Akershus/Enebakk/Tangen/forecast.xml
229	Vardåsen	60	Enebakk	Akershus	59.7959	11.1199	http://www.yr.no/stad/Noreg/Akershus/Enebakk/Vardåsen/varsel.xml	http://www.yr.no/sted/Norge/Akershus/Enebakk/Vardåsen/varsel.xml	http://www.yr.no/place/Norway/Akershus/Enebakk/Vardåsen/forecast.xml
230	Solheim	30	Lørenskog	Akershus	59.9266	10.9554	http://www.yr.no/stad/Noreg/Akershus/Lørenskog/Solheim/varsel.xml	http://www.yr.no/sted/Norge/Akershus/Lørenskog/Solheim/varsel.xml	http://www.yr.no/place/Norway/Akershus/Lørenskog/Solheim/forecast.xml
230	Finstad	50	Lørenskog	Akershus	59.9102	10.9647	http://www.yr.no/stad/Noreg/Akershus/Lørenskog/Finstad/varsel.xml	http://www.yr.no/sted/Norge/Akershus/Lørenskog/Finstad/varsel.xml	http://www.yr.no/place/Norway/Akershus/Lørenskog/Finstad/forecast.xml
230	Fjellhamar	50	Lørenskog	Akershus	59.9391	10.9818	http://www.yr.no/stad/Noreg/Akershus/Lørenskog/Fjellhamar/varsel.xml	http://www.yr.no/sted/Norge/Akershus/Lørenskog/Fjellhamar/varsel.xml	http://www.yr.no/place/Norway/Akershus/Lørenskog/Fjellhamar/forecast.xml
230	Nordby	50	Lørenskog	Akershus	59.9334	10.9964	http://www.yr.no/stad/Noreg/Akershus/Lørenskog/Nordby/varsel.xml	http://www.yr.no/sted/Norge/Akershus/Lørenskog/Nordby/varsel.xml	http://www.yr.no/place/Norway/Akershus/Lørenskog/Nordby/forecast.xml
230	Rasta	50	Lørenskog	Akershus	59.9258	10.9375	http://www.yr.no/stad/Noreg/Akershus/Lørenskog/Rasta/varsel.xml	http://www.yr.no/sted/Norge/Akershus/Lørenskog/Rasta/varsel.xml	http://www.yr.no/place/Norway/Akershus/Lørenskog/Rasta/forecast.xml
231	Lillestrøm	25	Skedsmo	Akershus	59.9545	11.0495	http://www.yr.no/stad/Noreg/Akershus/Skedsmo/Lillestrøm/varsel.xml	http://www.yr.no/sted/Norge/Akershus/Skedsmo/Lillestrøm/varsel.xml	http://www.yr.no/place/Norway/Akershus/Skedsmo/Lillestrøm/forecast.xml
231	Kjeller	50	Skedsmo	Akershus	59.9699	11.0331	http://www.yr.no/stad/Noreg/Akershus/Skedsmo/Kjeller/varsel.xml	http://www.yr.no/sted/Norge/Akershus/Skedsmo/Kjeller/varsel.xml	http://www.yr.no/place/Norway/Akershus/Skedsmo/Kjeller/forecast.xml
231	Leirsund	50	Skedsmo	Akershus	59.9960	11.0940	http://www.yr.no/stad/Noreg/Akershus/Skedsmo/Leirsund/varsel.xml	http://www.yr.no/sted/Norge/Akershus/Skedsmo/Leirsund/varsel.xml	http://www.yr.no/place/Norway/Akershus/Skedsmo/Leirsund/forecast.xml
231	Skedsmokorset	50	Skedsmo	Akershus	60.0040	11.0331	http://www.yr.no/stad/Noreg/Akershus/Skedsmo/Skedsmokorset/varsel.xml	http://www.yr.no/sted/Norge/Akershus/Skedsmo/Skedsmokorset/varsel.xml	http://www.yr.no/place/Norway/Akershus/Skedsmo/Skedsmokorset/forecast.xml
231	Strømmen	50	Skedsmo	Akershus	59.9443	11.0076	http://www.yr.no/stad/Noreg/Akershus/Skedsmo/Strømmen/varsel.xml	http://www.yr.no/sted/Norge/Akershus/Skedsmo/Strømmen/varsel.xml	http://www.yr.no/place/Norway/Akershus/Skedsmo/Strømmen/forecast.xml
233	Nittedal	30	Nittedal	Akershus	60.0413	10.8820	http://www.yr.no/stad/Noreg/Akershus/Nittedal/Nittedal/varsel.xml	http://www.yr.no/sted/Norge/Akershus/Nittedal/Nittedal/varsel.xml	http://www.yr.no/place/Norway/Akershus/Nittedal/Nittedal/forecast.xml
233	Hagan	50	Nittedal	Akershus	59.9938	10.9191	http://www.yr.no/stad/Noreg/Akershus/Nittedal/Hagan/varsel.xml	http://www.yr.no/sted/Norge/Akershus/Nittedal/Hagan/varsel.xml	http://www.yr.no/place/Norway/Akershus/Nittedal/Hagan/forecast.xml
233	Hakadal	50	Nittedal	Akershus	60.1158	10.8291	http://www.yr.no/stad/Noreg/Akershus/Nittedal/Hakadal/varsel.xml	http://www.yr.no/sted/Norge/Akershus/Nittedal/Hakadal/varsel.xml	http://www.yr.no/place/Norway/Akershus/Nittedal/Hakadal/forecast.xml
233	Skytta	50	Nittedal	Akershus	59.9939	10.9106	http://www.yr.no/stad/Noreg/Akershus/Nittedal/Skytta/varsel.xml	http://www.yr.no/sted/Norge/Akershus/Nittedal/Skytta/varsel.xml	http://www.yr.no/place/Norway/Akershus/Nittedal/Skytta/forecast.xml
233	Lillomarkkapellet	60	Nittedal	Akershus	60.0114	10.8681	http://www.yr.no/stad/Noreg/Akershus/Nittedal/Lillomarkkapellet/varsel.xml	http://www.yr.no/sted/Norge/Akershus/Nittedal/Lillomarkkapellet/varsel.xml	http://www.yr.no/place/Norway/Akershus/Nittedal/Lillomarkkapellet/forecast.xml
234	Ask	30	Gjerdrum	Akershus	60.0702	11.0348	http://www.yr.no/stad/Noreg/Akershus/Gjerdrum/Ask/varsel.xml	http://www.yr.no/sted/Norge/Akershus/Gjerdrum/Ask/varsel.xml	http://www.yr.no/place/Norway/Akershus/Gjerdrum/Ask/forecast.xml
234	Heni	60	Gjerdrum	Akershus	60.0951	11.0602	http://www.yr.no/stad/Noreg/Akershus/Gjerdrum/Heni/varsel.xml	http://www.yr.no/sted/Norge/Akershus/Gjerdrum/Heni/varsel.xml	http://www.yr.no/place/Norway/Akershus/Gjerdrum/Heni/forecast.xml
234	Bekkeberga	60	Gjerdrum	Akershus	60.0889	10.9993	http://www.yr.no/stad/Noreg/Akershus/Gjerdrum/Bekkeberga/varsel.xml	http://www.yr.no/sted/Norge/Akershus/Gjerdrum/Bekkeberga/varsel.xml	http://www.yr.no/place/Norway/Akershus/Gjerdrum/Bekkeberga/forecast.xml
234	Flatner	60	Gjerdrum	Akershus	60.0299	11.0415	http://www.yr.no/stad/Noreg/Akershus/Gjerdrum/Flatner/varsel.xml	http://www.yr.no/sted/Norge/Akershus/Gjerdrum/Flatner/varsel.xml	http://www.yr.no/place/Norway/Akershus/Gjerdrum/Flatner/forecast.xml
234	Grønlundfjellet	60	Gjerdrum	Akershus	60.0738	10.9961	http://www.yr.no/stad/Noreg/Akershus/Gjerdrum/Grønlundfjellet/varsel.xml	http://www.yr.no/sted/Norge/Akershus/Gjerdrum/Grønlundfjellet/varsel.xml	http://www.yr.no/place/Norway/Akershus/Gjerdrum/Grønlundfjellet/forecast.xml
235	Jessheim	30	Ullensaker	Akershus	60.1401	11.1755	http://www.yr.no/stad/Noreg/Akershus/Ullensaker/Jessheim/varsel.xml	http://www.yr.no/sted/Norge/Akershus/Ullensaker/Jessheim/varsel.xml	http://www.yr.no/place/Norway/Akershus/Ullensaker/Jessheim/forecast.xml
235	Gardermoen	50	Ullensaker	Akershus	60.1926	11.0997	http://www.yr.no/stad/Noreg/Akershus/Ullensaker/Gardermoen/varsel.xml	http://www.yr.no/sted/Norge/Akershus/Ullensaker/Gardermoen/varsel.xml	http://www.yr.no/place/Norway/Akershus/Ullensaker/Gardermoen/forecast.xml
235	Kløfta	50	Ullensaker	Akershus	60.0726	11.1383	http://www.yr.no/stad/Noreg/Akershus/Ullensaker/Kløfta/varsel.xml	http://www.yr.no/sted/Norge/Akershus/Ullensaker/Kløfta/varsel.xml	http://www.yr.no/place/Norway/Akershus/Ullensaker/Kløfta/forecast.xml
235	Nordkisa	50	Ullensaker	Akershus	59.9993	10.7916	http://www.yr.no/stad/Noreg/Akershus/Ullensaker/Nordkisa/varsel.xml	http://www.yr.no/sted/Norge/Akershus/Ullensaker/Nordkisa/varsel.xml	http://www.yr.no/place/Norway/Akershus/Ullensaker/Nordkisa/forecast.xml
236	Årnes	30	Nes	Akershus	60.1196	11.4666	http://www.yr.no/stad/Noreg/Akershus/Nes/Årnes/varsel.xml	http://www.yr.no/sted/Norge/Akershus/Nes/Årnes/varsel.xml	http://www.yr.no/place/Norway/Akershus/Nes/Årnes/forecast.xml
236	Auli	50	Nes	Akershus	60.0378	11.3526	http://www.yr.no/stad/Noreg/Akershus/Nes/Auli/varsel.xml	http://www.yr.no/sted/Norge/Akershus/Nes/Auli/varsel.xml	http://www.yr.no/place/Norway/Akershus/Nes/Auli/forecast.xml
236	Brårud	50	Nes	Akershus	60.2074	11.3326	http://www.yr.no/stad/Noreg/Akershus/Nes/Brårud/varsel.xml	http://www.yr.no/sted/Norge/Akershus/Nes/Brårud/varsel.xml	http://www.yr.no/place/Norway/Akershus/Nes/Brårud/forecast.xml
236	Fenstad	50	Nes	Akershus	60.2099	11.3770	http://www.yr.no/stad/Noreg/Akershus/Nes/Fenstad/varsel.xml	http://www.yr.no/sted/Norge/Akershus/Nes/Fenstad/varsel.xml	http://www.yr.no/place/Norway/Akershus/Nes/Fenstad/forecast.xml
236	Oppaker	50	Nes	Akershus	60.1781	11.5157	http://www.yr.no/stad/Noreg/Akershus/Nes/Oppaker/varsel.xml	http://www.yr.no/sted/Norge/Akershus/Nes/Oppaker/varsel.xml	http://www.yr.no/place/Norway/Akershus/Nes/Oppaker/forecast.xml
237	Eidsvoll	25	Eidsvoll	Akershus	60.3275	11.2615	http://www.yr.no/stad/Noreg/Akershus/Eidsvoll/Eidsvoll/varsel.xml	http://www.yr.no/sted/Norge/Akershus/Eidsvoll/Eidsvoll/varsel.xml	http://www.yr.no/place/Norway/Akershus/Eidsvoll/Eidsvoll/forecast.xml
237	Bøn	50	Eidsvoll	Akershus	60.2905	11.2128	http://www.yr.no/stad/Noreg/Akershus/Eidsvoll/Bøn/varsel.xml	http://www.yr.no/sted/Norge/Akershus/Eidsvoll/Bøn/varsel.xml	http://www.yr.no/place/Norway/Akershus/Eidsvoll/Bøn/forecast.xml
237	Dal	50	Eidsvoll	Akershus	60.2500	11.2025	http://www.yr.no/stad/Noreg/Akershus/Eidsvoll/Dal/varsel.xml	http://www.yr.no/sted/Norge/Akershus/Eidsvoll/Dal/varsel.xml	http://www.yr.no/place/Norway/Akershus/Eidsvoll/Dal/forecast.xml
237	Feiring	50	Eidsvoll	Akershus	60.4832	11.1497	http://www.yr.no/stad/Noreg/Akershus/Eidsvoll/Feiring/varsel.xml	http://www.yr.no/sted/Norge/Akershus/Eidsvoll/Feiring/varsel.xml	http://www.yr.no/place/Norway/Akershus/Eidsvoll/Feiring/forecast.xml
237	Minnesund	50	Eidsvoll	Akershus	60.3926	11.2211	http://www.yr.no/stad/Noreg/Akershus/Eidsvoll/Minnesund/varsel.xml	http://www.yr.no/sted/Norge/Akershus/Eidsvoll/Minnesund/varsel.xml	http://www.yr.no/place/Norway/Akershus/Eidsvoll/Minnesund/forecast.xml
238	Nannestad	30	Nannestad	Akershus	60.2156	11.0123	http://www.yr.no/stad/Noreg/Akershus/Nannestad/Nannestad/varsel.xml	http://www.yr.no/sted/Norge/Akershus/Nannestad/Nannestad/varsel.xml	http://www.yr.no/place/Norway/Akershus/Nannestad/Nannestad/forecast.xml
238	Holter	50	Nannestad	Akershus	60.1441	11.0506	http://www.yr.no/stad/Noreg/Akershus/Nannestad/Holter/varsel.xml	http://www.yr.no/sted/Norge/Akershus/Nannestad/Holter/varsel.xml	http://www.yr.no/place/Norway/Akershus/Nannestad/Holter/forecast.xml
238	Maura	50	Nannestad	Akershus	60.2567	11.0297	http://www.yr.no/stad/Noreg/Akershus/Nannestad/Maura/varsel.xml	http://www.yr.no/sted/Norge/Akershus/Nannestad/Maura/varsel.xml	http://www.yr.no/place/Norway/Akershus/Nannestad/Maura/forecast.xml
238	Åsgreina	50	Nannestad	Akershus	60.1763	10.9863	http://www.yr.no/stad/Noreg/Akershus/Nannestad/Åsgreina/varsel.xml	http://www.yr.no/sted/Norge/Akershus/Nannestad/Åsgreina/varsel.xml	http://www.yr.no/place/Norway/Akershus/Nannestad/Åsgreina/forecast.xml
238	Bjørke	60	Nannestad	Akershus	60.2329	11.0121	http://www.yr.no/stad/Noreg/Akershus/Nannestad/Bjørke/varsel.xml	http://www.yr.no/sted/Norge/Akershus/Nannestad/Bjørke/varsel.xml	http://www.yr.no/place/Norway/Akershus/Nannestad/Bjørke/forecast.xml
239	Hurdal	30	Hurdal	Akershus	60.4337	11.0674	http://www.yr.no/stad/Noreg/Akershus/Hurdal/Hurdal/varsel.xml	http://www.yr.no/sted/Norge/Akershus/Hurdal/Hurdal/varsel.xml	http://www.yr.no/place/Norway/Akershus/Hurdal/Hurdal/forecast.xml
239	Dalen	60	Hurdal	Akershus	60.4851	10.9606	http://www.yr.no/stad/Noreg/Akershus/Hurdal/Dalen/varsel.xml	http://www.yr.no/sted/Norge/Akershus/Hurdal/Dalen/varsel.xml	http://www.yr.no/place/Norway/Akershus/Hurdal/Dalen/forecast.xml
239	Skrukkelia	60	Hurdal	Akershus	60.4504	10.8259	http://www.yr.no/stad/Noreg/Akershus/Hurdal/Skrukkelia/varsel.xml	http://www.yr.no/sted/Norge/Akershus/Hurdal/Skrukkelia/varsel.xml	http://www.yr.no/place/Norway/Akershus/Hurdal/Skrukkelia/forecast.xml
239	Middagskollen	60	Hurdal	Akershus	60.3997	10.9376	http://www.yr.no/stad/Noreg/Akershus/Hurdal/Middagskollen/varsel.xml	http://www.yr.no/sted/Norge/Akershus/Hurdal/Middagskollen/varsel.xml	http://www.yr.no/place/Norway/Akershus/Hurdal/Middagskollen/forecast.xml
239	Rustadbruk	60	Hurdal	Akershus	60.3472	11.0191	http://www.yr.no/stad/Noreg/Akershus/Hurdal/Rustadbruk/varsel.xml	http://www.yr.no/sted/Norge/Akershus/Hurdal/Rustadbruk/varsel.xml	http://www.yr.no/place/Norway/Akershus/Hurdal/Rustadbruk/forecast.xml
301	Oslo	10	Oslo	Oslo	59.9113	10.7464	http://www.yr.no/stad/Noreg/Oslo/Oslo/Oslo/varsel.xml	http://www.yr.no/sted/Norge/Oslo/Oslo/Oslo/varsel.xml	http://www.yr.no/place/Norway/Oslo/Oslo/Oslo/forecast.xml
301	Kikut	30	Oslo	Oslo	60.0826	10.6455	http://www.yr.no/stad/Noreg/Oslo/Oslo/Kikut/varsel.xml	http://www.yr.no/sted/Norge/Oslo/Oslo/Kikut/varsel.xml	http://www.yr.no/place/Norway/Oslo/Oslo/Kikut/forecast.xml
301	Blindern	40	Oslo	Oslo	59.9392	10.7234	http://www.yr.no/stad/Noreg/Oslo/Oslo/Blindern/varsel.xml	http://www.yr.no/sted/Norge/Oslo/Oslo/Blindern/varsel.xml	http://www.yr.no/place/Norway/Oslo/Oslo/Blindern/forecast.xml
301	Grorud	60	Oslo	Oslo	59.9588	10.8817	http://www.yr.no/stad/Noreg/Oslo/Oslo/Grorud/varsel.xml	http://www.yr.no/sted/Norge/Oslo/Oslo/Grorud/varsel.xml	http://www.yr.no/place/Norway/Oslo/Oslo/Grorud/forecast.xml
301	Frognerseteren	60	Oslo	Oslo	59.9763	10.6780	http://www.yr.no/stad/Noreg/Oslo/Oslo/Frognerseteren/varsel.xml	http://www.yr.no/sted/Norge/Oslo/Oslo/Frognerseteren/varsel.xml	http://www.yr.no/place/Norway/Oslo/Oslo/Frognerseteren/forecast.xml
402	Kongsvinger	25	Kongsvinger	Hedmark	60.1890	11.9979	http://www.yr.no/stad/Noreg/Hedmark/Kongsvinger/Kongsvinger/varsel.xml	http://www.yr.no/sted/Norge/Hedmark/Kongsvinger/Kongsvinger/varsel.xml	http://www.yr.no/place/Norway/Hedmark/Kongsvinger/Kongsvinger/forecast.xml
402	Austmarka	50	Kongsvinger	Hedmark	60.1019	12.3140	http://www.yr.no/stad/Noreg/Hedmark/Kongsvinger/Austmarka/varsel.xml	http://www.yr.no/sted/Norge/Hedmark/Kongsvinger/Austmarka/varsel.xml	http://www.yr.no/place/Norway/Hedmark/Kongsvinger/Austmarka/forecast.xml
402	Brandval	50	Kongsvinger	Hedmark	60.3140	12.0138	http://www.yr.no/stad/Noreg/Hedmark/Kongsvinger/Brandval/varsel.xml	http://www.yr.no/sted/Norge/Hedmark/Kongsvinger/Brandval/varsel.xml	http://www.yr.no/place/Norway/Hedmark/Kongsvinger/Brandval/forecast.xml
402	Hokkåsen	50	Kongsvinger	Hedmark	60.2778	12.1133	http://www.yr.no/stad/Noreg/Hedmark/Kongsvinger/Hokkåsen/varsel.xml	http://www.yr.no/sted/Norge/Hedmark/Kongsvinger/Hokkåsen/varsel.xml	http://www.yr.no/place/Norway/Hedmark/Kongsvinger/Hokkåsen/forecast.xml
402	Roverud	50	Kongsvinger	Hedmark	60.2520	12.0524	http://www.yr.no/stad/Noreg/Hedmark/Kongsvinger/Roverud/varsel.xml	http://www.yr.no/sted/Norge/Hedmark/Kongsvinger/Roverud/varsel.xml	http://www.yr.no/place/Norway/Hedmark/Kongsvinger/Roverud/forecast.xml
403	Hamar	25	Hamar	Hedmark	60.7930	11.0683	http://www.yr.no/stad/Noreg/Hedmark/Hamar/Hamar/varsel.xml	http://www.yr.no/sted/Norge/Hedmark/Hamar/Hamar/varsel.xml	http://www.yr.no/place/Norway/Hedmark/Hamar/Hamar/forecast.xml
403	Ridabu skole	50	Hamar	Hedmark	60.8013	11.1368	http://www.yr.no/stad/Noreg/Hedmark/Hamar/Ridabu_skole/varsel.xml	http://www.yr.no/sted/Norge/Hedmark/Hamar/Ridabu_skole/varsel.xml	http://www.yr.no/place/Norway/Hedmark/Hamar/Ridabu_skole/forecast.xml
403	Vang	50	Hamar	Hedmark	60.8010	11.1323	http://www.yr.no/stad/Noreg/Hedmark/Hamar/Vang/varsel.xml	http://www.yr.no/sted/Norge/Hedmark/Hamar/Vang/varsel.xml	http://www.yr.no/place/Norway/Hedmark/Hamar/Vang/forecast.xml
403	Slemsrud	60	Hamar	Hedmark	60.8458	11.2035	http://www.yr.no/stad/Noreg/Hedmark/Hamar/Slemsrud/varsel.xml	http://www.yr.no/sted/Norge/Hedmark/Hamar/Slemsrud/varsel.xml	http://www.yr.no/place/Norway/Hedmark/Hamar/Slemsrud/forecast.xml
412	Brumunddal	30	Ringsaker	Hedmark	60.8795	10.9398	http://www.yr.no/stad/Noreg/Hedmark/Ringsaker/Brumunddal/varsel.xml	http://www.yr.no/sted/Norge/Hedmark/Ringsaker/Brumunddal/varsel.xml	http://www.yr.no/place/Norway/Hedmark/Ringsaker/Brumunddal/forecast.xml
412	Stavsjø	50	Ringsaker	Hedmark	60.8037	10.8405	http://www.yr.no/stad/Noreg/Hedmark/Ringsaker/Stavsjø/varsel.xml	http://www.yr.no/sted/Norge/Hedmark/Ringsaker/Stavsjø/varsel.xml	http://www.yr.no/place/Norway/Hedmark/Ringsaker/Stavsjø/forecast.xml
412	Moelv	50	Ringsaker	Hedmark	60.9367	10.7002	http://www.yr.no/stad/Noreg/Hedmark/Ringsaker/Moelv/varsel.xml	http://www.yr.no/sted/Norge/Hedmark/Ringsaker/Moelv/varsel.xml	http://www.yr.no/place/Norway/Hedmark/Ringsaker/Moelv/forecast.xml
412	Sjusjøen	50	Ringsaker	Hedmark	61.1535	10.6991	http://www.yr.no/stad/Noreg/Hedmark/Ringsaker/Sjusjøen/varsel.xml	http://www.yr.no/sted/Norge/Hedmark/Ringsaker/Sjusjøen/varsel.xml	http://www.yr.no/place/Norway/Hedmark/Ringsaker/Sjusjøen/forecast.xml
412	Næroset	50	Ringsaker	Hedmark	60.9730	10.7736	http://www.yr.no/stad/Noreg/Hedmark/Ringsaker/Næroset/varsel.xml	http://www.yr.no/sted/Norge/Hedmark/Ringsaker/Næroset/varsel.xml	http://www.yr.no/place/Norway/Hedmark/Ringsaker/Næroset/forecast.xml
415	Løten	30	Løten	Hedmark	60.8162	11.3440	http://www.yr.no/stad/Noreg/Hedmark/Løten/Løten/varsel.xml	http://www.yr.no/sted/Norge/Hedmark/Løten/Løten/varsel.xml	http://www.yr.no/place/Norway/Hedmark/Løten/Løten/forecast.xml
415	Ådalsbruk	50	Løten	Hedmark	60.7956	11.3069	http://www.yr.no/stad/Noreg/Hedmark/Løten/Ådalsbruk/varsel.xml	http://www.yr.no/sted/Norge/Hedmark/Løten/Ådalsbruk/varsel.xml	http://www.yr.no/place/Norway/Hedmark/Løten/Ådalsbruk/forecast.xml
415	Oppegård	60	Løten	Hedmark	60.7376	11.4967	http://www.yr.no/stad/Noreg/Hedmark/Løten/Oppegård/varsel.xml	http://www.yr.no/sted/Norge/Hedmark/Løten/Oppegård/varsel.xml	http://www.yr.no/place/Norway/Hedmark/Løten/Oppegård/forecast.xml
415	Oset	60	Løten	Hedmark	60.7880	11.4777	http://www.yr.no/stad/Noreg/Hedmark/Løten/Oset/varsel.xml	http://www.yr.no/sted/Norge/Hedmark/Løten/Oset/varsel.xml	http://www.yr.no/place/Norway/Hedmark/Løten/Oset/forecast.xml
417	Stange	30	Stange	Hedmark	60.7141	11.1909	http://www.yr.no/stad/Noreg/Hedmark/Stange/Stange/varsel.xml	http://www.yr.no/sted/Norge/Hedmark/Stange/Stange/varsel.xml	http://www.yr.no/place/Norway/Hedmark/Stange/Stange/forecast.xml
417	Espa	50	Stange	Hedmark	60.5764	11.2712	http://www.yr.no/stad/Noreg/Hedmark/Stange/Espa/varsel.xml	http://www.yr.no/sted/Norge/Hedmark/Stange/Espa/varsel.xml	http://www.yr.no/place/Norway/Hedmark/Stange/Espa/forecast.xml
417	Ilseng	50	Stange	Hedmark	60.7742	11.2276	http://www.yr.no/stad/Noreg/Hedmark/Stange/Ilseng/varsel.xml	http://www.yr.no/sted/Norge/Hedmark/Stange/Ilseng/varsel.xml	http://www.yr.no/place/Norway/Hedmark/Stange/Ilseng/forecast.xml
417	Ottestad	50	Stange	Hedmark	60.7457	11.1362	http://www.yr.no/stad/Noreg/Hedmark/Stange/Ottestad/varsel.xml	http://www.yr.no/sted/Norge/Hedmark/Stange/Ottestad/varsel.xml	http://www.yr.no/place/Norway/Hedmark/Stange/Ottestad/forecast.xml
417	Åsvang	50	Stange	Hedmark	60.7177	11.3498	http://www.yr.no/stad/Noreg/Hedmark/Stange/Åsvang/varsel.xml	http://www.yr.no/sted/Norge/Hedmark/Stange/Åsvang/varsel.xml	http://www.yr.no/place/Norway/Hedmark/Stange/Åsvang/forecast.xml
417	Åsvang	60	Stange	Hedmark	60.7177	11.3498	http://www.yr.no/stad/Noreg/Hedmark/Stange/Åsvang/varsel.xml	http://www.yr.no/sted/Norge/Hedmark/Stange/Åsvang/varsel.xml	http://www.yr.no/place/Norway/Hedmark/Stange/Åsvang/forecast.xml
418	Sagstua	30	Nord-Odal	Hedmark	60.3867	11.5364	http://www.yr.no/stad/Noreg/Hedmark/Nord-Odal/Sagstua/varsel.xml	http://www.yr.no/sted/Norge/Hedmark/Nord-Odal/Sagstua/varsel.xml	http://www.yr.no/place/Norway/Hedmark/Nord-Odal/Sagstua/forecast.xml
418	Austvatn	50	Nord-Odal	Hedmark	60.3768	11.6931	http://www.yr.no/stad/Noreg/Hedmark/Nord-Odal/Austvatn/varsel.xml	http://www.yr.no/sted/Norge/Hedmark/Nord-Odal/Austvatn/varsel.xml	http://www.yr.no/place/Norway/Hedmark/Nord-Odal/Austvatn/forecast.xml
418	Bruvoll	50	Nord-Odal	Hedmark	60.4390	11.5106	http://www.yr.no/stad/Noreg/Hedmark/Nord-Odal/Bruvoll/varsel.xml	http://www.yr.no/sted/Norge/Hedmark/Nord-Odal/Bruvoll/varsel.xml	http://www.yr.no/place/Norway/Hedmark/Nord-Odal/Bruvoll/forecast.xml
418	Gardvik	50	Nord-Odal	Hedmark	60.4142	11.6477	http://www.yr.no/stad/Noreg/Hedmark/Nord-Odal/Gardvik/varsel.xml	http://www.yr.no/sted/Norge/Hedmark/Nord-Odal/Gardvik/varsel.xml	http://www.yr.no/place/Norway/Hedmark/Nord-Odal/Gardvik/forecast.xml
418	Knapper	50	Nord-Odal	Hedmark	60.4678	11.6223	http://www.yr.no/stad/Noreg/Hedmark/Nord-Odal/Knapper/varsel.xml	http://www.yr.no/sted/Norge/Hedmark/Nord-Odal/Knapper/varsel.xml	http://www.yr.no/place/Norway/Hedmark/Nord-Odal/Knapper/forecast.xml
419	Skarnes	30	Sør-Odal	Hedmark	60.2514	11.6800	http://www.yr.no/stad/Noreg/Hedmark/Sør-Odal/Skarnes/varsel.xml	http://www.yr.no/sted/Norge/Hedmark/Sør-Odal/Skarnes/varsel.xml	http://www.yr.no/place/Norway/Hedmark/Sør-Odal/Skarnes/forecast.xml
419	Disenå	50	Sør-Odal	Hedmark	60.2077	11.6421	http://www.yr.no/stad/Noreg/Hedmark/Sør-Odal/Disenå/varsel.xml	http://www.yr.no/sted/Norge/Hedmark/Sør-Odal/Disenå/varsel.xml	http://www.yr.no/place/Norway/Hedmark/Sør-Odal/Disenå/forecast.xml
419	Galterud	50	Sør-Odal	Hedmark	60.1959	11.8809	http://www.yr.no/stad/Noreg/Hedmark/Sør-Odal/Galterud/varsel.xml	http://www.yr.no/sted/Norge/Hedmark/Sør-Odal/Galterud/varsel.xml	http://www.yr.no/place/Norway/Hedmark/Sør-Odal/Galterud/forecast.xml
419	Skarnes	50	Sør-Odal	Hedmark	60.2514	11.6800	http://www.yr.no/stad/Noreg/Hedmark/Sør-Odal/Skarnes/varsel.xml	http://www.yr.no/sted/Norge/Hedmark/Sør-Odal/Skarnes/varsel.xml	http://www.yr.no/place/Norway/Hedmark/Sør-Odal/Skarnes/forecast.xml
419	Slåstad	50	Sør-Odal	Hedmark	60.2810	11.7711	http://www.yr.no/stad/Noreg/Hedmark/Sør-Odal/Slåstad/varsel.xml	http://www.yr.no/sted/Norge/Hedmark/Sør-Odal/Slåstad/varsel.xml	http://www.yr.no/place/Norway/Hedmark/Sør-Odal/Slåstad/forecast.xml
420	Skotterud	30	Eidskog	Hedmark	59.9814	12.1285	http://www.yr.no/stad/Noreg/Hedmark/Eidskog/Skotterud/varsel.xml	http://www.yr.no/sted/Norge/Hedmark/Eidskog/Skotterud/varsel.xml	http://www.yr.no/place/Norway/Hedmark/Eidskog/Skotterud/forecast.xml
420	Magnor	50	Eidskog	Hedmark	59.9490	12.1984	http://www.yr.no/stad/Noreg/Hedmark/Eidskog/Magnor/varsel.xml	http://www.yr.no/sted/Norge/Hedmark/Eidskog/Magnor/varsel.xml	http://www.yr.no/place/Norway/Hedmark/Eidskog/Magnor/forecast.xml
420	Matrand	50	Eidskog	Hedmark	60.0278	12.1247	http://www.yr.no/stad/Noreg/Hedmark/Eidskog/Matrand/varsel.xml	http://www.yr.no/sted/Norge/Hedmark/Eidskog/Matrand/varsel.xml	http://www.yr.no/place/Norway/Hedmark/Eidskog/Matrand/forecast.xml
420	Helgesjøen	50	Eidskog	Hedmark	59.8975	12.0390	http://www.yr.no/stad/Noreg/Hedmark/Eidskog/Helgesjøen/varsel.xml	http://www.yr.no/sted/Norge/Hedmark/Eidskog/Helgesjøen/varsel.xml	http://www.yr.no/place/Norway/Hedmark/Eidskog/Helgesjøen/forecast.xml
420	Åbogen	50	Eidskog	Hedmark	60.1099	12.1144	http://www.yr.no/stad/Noreg/Hedmark/Eidskog/Åbogen/varsel.xml	http://www.yr.no/sted/Norge/Hedmark/Eidskog/Åbogen/varsel.xml	http://www.yr.no/place/Norway/Hedmark/Eidskog/Åbogen/forecast.xml
423	Kirkenær	25	Grue	Hedmark	60.4550	12.0584	http://www.yr.no/stad/Noreg/Hedmark/Grue/Kirkenær/varsel.xml	http://www.yr.no/sted/Norge/Hedmark/Grue/Kirkenær/varsel.xml	http://www.yr.no/place/Norway/Hedmark/Grue/Kirkenær/forecast.xml
423	Grinder	50	Grue	Hedmark	60.4062	12.0500	http://www.yr.no/stad/Noreg/Hedmark/Grue/Grinder/varsel.xml	http://www.yr.no/sted/Norge/Hedmark/Grue/Grinder/varsel.xml	http://www.yr.no/place/Norway/Hedmark/Grue/Grinder/forecast.xml
423	Grue Finnskog	50	Grue	Hedmark	60.4168	12.4062	http://www.yr.no/stad/Noreg/Hedmark/Grue/Grue_Finnskog/varsel.xml	http://www.yr.no/sted/Norge/Hedmark/Grue/Grue_Finnskog/varsel.xml	http://www.yr.no/place/Norway/Hedmark/Grue/Grue_Finnskog/forecast.xml
423	Namnå	50	Grue	Hedmark	60.4955	12.0782	http://www.yr.no/stad/Noreg/Hedmark/Grue/Namnå/varsel.xml	http://www.yr.no/sted/Norge/Hedmark/Grue/Namnå/varsel.xml	http://www.yr.no/place/Norway/Hedmark/Grue/Namnå/forecast.xml
423	Revholen	60	Grue	Hedmark	60.3973	12.3496	http://www.yr.no/stad/Noreg/Hedmark/Grue/Revholen/varsel.xml	http://www.yr.no/sted/Norge/Hedmark/Grue/Revholen/varsel.xml	http://www.yr.no/place/Norway/Hedmark/Grue/Revholen/forecast.xml
425	Flisa	30	Åsnes	Hedmark	60.6077	12.0157	http://www.yr.no/stad/Noreg/Hedmark/Åsnes/Flisa/varsel.xml	http://www.yr.no/sted/Norge/Hedmark/Åsnes/Flisa/varsel.xml	http://www.yr.no/place/Norway/Hedmark/Åsnes/Flisa/forecast.xml
425	Arneberg	50	Åsnes	Hedmark	60.5662	12.0585	http://www.yr.no/stad/Noreg/Hedmark/Åsnes/Arneberg/varsel.xml	http://www.yr.no/sted/Norge/Hedmark/Åsnes/Arneberg/varsel.xml	http://www.yr.no/place/Norway/Hedmark/Åsnes/Arneberg/forecast.xml
425	Gjesåsen	50	Åsnes	Hedmark	60.6769	12.0249	http://www.yr.no/stad/Noreg/Hedmark/Åsnes/Gjesåsen/varsel.xml	http://www.yr.no/sted/Norge/Hedmark/Åsnes/Gjesåsen/varsel.xml	http://www.yr.no/place/Norway/Hedmark/Åsnes/Gjesåsen/forecast.xml
425	Åsnes Finnskog	50	Åsnes	Hedmark	60.7024	12.3795	http://www.yr.no/stad/Noreg/Hedmark/Åsnes/Åsnes_Finnskog/varsel.xml	http://www.yr.no/sted/Norge/Hedmark/Åsnes/Åsnes_Finnskog/varsel.xml	http://www.yr.no/place/Norway/Hedmark/Åsnes/Åsnes_Finnskog/forecast.xml
425	Finnskog	60	Åsnes	Hedmark	60.7024	12.3795	http://www.yr.no/stad/Noreg/Hedmark/Åsnes/Finnskog/varsel.xml	http://www.yr.no/sted/Norge/Hedmark/Åsnes/Finnskog/varsel.xml	http://www.yr.no/place/Norway/Hedmark/Åsnes/Finnskog/forecast.xml
425	Råknappen	60	Åsnes	Hedmark	60.5637	11.7102	http://www.yr.no/stad/Noreg/Hedmark/Åsnes/Råknappen/varsel.xml	http://www.yr.no/sted/Norge/Hedmark/Åsnes/Råknappen/varsel.xml	http://www.yr.no/place/Norway/Hedmark/Åsnes/Råknappen/forecast.xml
426	Våler	30	Våler	Hedmark	60.6771	11.8335	http://www.yr.no/stad/Noreg/Hedmark/Våler/Våler/varsel.xml	http://www.yr.no/sted/Norge/Hedmark/Våler/Våler/varsel.xml	http://www.yr.no/place/Norway/Hedmark/Våler/Våler/forecast.xml
426	Braskereidfoss	50	Våler	Hedmark	60.7232	11.8022	http://www.yr.no/stad/Noreg/Hedmark/Våler/Braskereidfoss/varsel.xml	http://www.yr.no/sted/Norge/Hedmark/Våler/Braskereidfoss/varsel.xml	http://www.yr.no/place/Norway/Hedmark/Våler/Braskereidfoss/forecast.xml
426	Gravberget	50	Våler	Hedmark	60.8814	12.2379	http://www.yr.no/stad/Noreg/Hedmark/Våler/Gravberget/varsel.xml	http://www.yr.no/sted/Norge/Hedmark/Våler/Gravberget/varsel.xml	http://www.yr.no/place/Norway/Hedmark/Våler/Gravberget/forecast.xml
426	Haslemoen	50	Våler	Hedmark	60.6496	11.8749	http://www.yr.no/stad/Noreg/Hedmark/Våler/Haslemoen/varsel.xml	http://www.yr.no/sted/Norge/Hedmark/Våler/Haslemoen/varsel.xml	http://www.yr.no/place/Norway/Hedmark/Våler/Haslemoen/forecast.xml
427	Elverum	30	Elverum	Hedmark	60.8804	11.5626	http://www.yr.no/stad/Noreg/Hedmark/Elverum/Elverum/varsel.xml	http://www.yr.no/sted/Norge/Hedmark/Elverum/Elverum/varsel.xml	http://www.yr.no/place/Norway/Hedmark/Elverum/Elverum/forecast.xml
427	Heradsbygd	50	Elverum	Hedmark	60.8213	11.6384	http://www.yr.no/stad/Noreg/Hedmark/Elverum/Heradsbygd/varsel.xml	http://www.yr.no/sted/Norge/Hedmark/Elverum/Heradsbygd/varsel.xml	http://www.yr.no/place/Norway/Hedmark/Elverum/Heradsbygd/forecast.xml
427	Hernes	50	Elverum	Hedmark	60.9254	11.6339	http://www.yr.no/stad/Noreg/Hedmark/Elverum/Hernes/varsel.xml	http://www.yr.no/sted/Norge/Hedmark/Elverum/Hernes/varsel.xml	http://www.yr.no/place/Norway/Hedmark/Elverum/Hernes/forecast.xml
427	Jømna	50	Elverum	Hedmark	60.8060	11.7082	http://www.yr.no/stad/Noreg/Hedmark/Elverum/Jømna/varsel.xml	http://www.yr.no/sted/Norge/Hedmark/Elverum/Jømna/varsel.xml	http://www.yr.no/place/Norway/Hedmark/Elverum/Jømna/forecast.xml
427	Sørskogbygda	50	Elverum	Hedmark	60.9406	11.7735	http://www.yr.no/stad/Noreg/Hedmark/Elverum/Sørskogbygda/varsel.xml	http://www.yr.no/sted/Norge/Hedmark/Elverum/Sørskogbygda/varsel.xml	http://www.yr.no/place/Norway/Hedmark/Elverum/Sørskogbygda/forecast.xml
428	Innbygda	30	Trysil	Hedmark	61.3133	12.2640	http://www.yr.no/stad/Noreg/Hedmark/Trysil/Innbygda/varsel.xml	http://www.yr.no/sted/Norge/Hedmark/Trysil/Innbygda/varsel.xml	http://www.yr.no/place/Norway/Hedmark/Trysil/Innbygda/forecast.xml
428	Jordet	50	Trysil	Hedmark	61.4259	12.1415	http://www.yr.no/stad/Noreg/Hedmark/Trysil/Jordet/varsel.xml	http://www.yr.no/sted/Norge/Hedmark/Trysil/Jordet/varsel.xml	http://www.yr.no/place/Norway/Hedmark/Trysil/Jordet/forecast.xml
428	Ljørdalen	50	Trysil	Hedmark	61.3822	12.6866	http://www.yr.no/stad/Noreg/Hedmark/Trysil/Ljørdalen/varsel.xml	http://www.yr.no/sted/Norge/Hedmark/Trysil/Ljørdalen/varsel.xml	http://www.yr.no/place/Norway/Hedmark/Trysil/Ljørdalen/forecast.xml
428	Plassen	50	Trysil	Hedmark	61.1324	12.5073	http://www.yr.no/stad/Noreg/Hedmark/Trysil/Plassen/varsel.xml	http://www.yr.no/sted/Norge/Hedmark/Trysil/Plassen/varsel.xml	http://www.yr.no/place/Norway/Hedmark/Trysil/Plassen/forecast.xml
428	Østby	50	Trysil	Hedmark	61.2525	12.5271	http://www.yr.no/stad/Noreg/Hedmark/Trysil/Østby/varsel.xml	http://www.yr.no/sted/Norge/Hedmark/Trysil/Østby/varsel.xml	http://www.yr.no/place/Norway/Hedmark/Trysil/Østby/forecast.xml
428	Grøndalen	60	Trysil	Hedmark	61.2217	12.2370	http://www.yr.no/stad/Noreg/Hedmark/Trysil/Grøndalen/varsel.xml	http://www.yr.no/sted/Norge/Hedmark/Trysil/Grøndalen/varsel.xml	http://www.yr.no/place/Norway/Hedmark/Trysil/Grøndalen/forecast.xml
429	Rena	30	Åmot	Hedmark	61.1334	11.3644	http://www.yr.no/stad/Noreg/Hedmark/Åmot/Rena/varsel.xml	http://www.yr.no/sted/Norge/Hedmark/Åmot/Rena/varsel.xml	http://www.yr.no/place/Norway/Hedmark/Åmot/Rena/forecast.xml
429	Osensjøen	50	Åmot	Hedmark	61.2433	11.8187	http://www.yr.no/stad/Noreg/Hedmark/Åmot/Osensjøen/varsel.xml	http://www.yr.no/sted/Norge/Hedmark/Åmot/Osensjøen/varsel.xml	http://www.yr.no/place/Norway/Hedmark/Åmot/Osensjøen/forecast.xml
429	Dulthøgda	60	Åmot	Hedmark	61.3908	11.6618	http://www.yr.no/stad/Noreg/Hedmark/Åmot/Dulthøgda/varsel.xml	http://www.yr.no/sted/Norge/Hedmark/Åmot/Dulthøgda/varsel.xml	http://www.yr.no/place/Norway/Hedmark/Åmot/Dulthøgda/forecast.xml
429	Snippen	60	Åmot	Hedmark	61.1582	11.4572	http://www.yr.no/stad/Noreg/Hedmark/Åmot/Snippen/varsel.xml	http://www.yr.no/sted/Norge/Hedmark/Åmot/Snippen/varsel.xml	http://www.yr.no/place/Norway/Hedmark/Åmot/Snippen/forecast.xml
429	Åsta	60	Åmot	Hedmark	61.0770	11.3517	http://www.yr.no/stad/Noreg/Hedmark/Åmot/Åsta/varsel.xml	http://www.yr.no/sted/Norge/Hedmark/Åmot/Åsta/varsel.xml	http://www.yr.no/place/Norway/Hedmark/Åmot/Åsta/forecast.xml
430	Koppang	30	Stor-Elvdal	Hedmark	61.5691	11.0558	http://www.yr.no/stad/Noreg/Hedmark/Stor-Elvdal/Koppang/varsel.xml	http://www.yr.no/sted/Norge/Hedmark/Stor-Elvdal/Koppang/varsel.xml	http://www.yr.no/place/Norway/Hedmark/Stor-Elvdal/Koppang/forecast.xml
430	Evenstad	40	Stor-Elvdal	Hedmark	61.4216	11.1005	http://www.yr.no/stad/Noreg/Hedmark/Stor-Elvdal/Evenstad/varsel.xml	http://www.yr.no/sted/Norge/Hedmark/Stor-Elvdal/Evenstad/varsel.xml	http://www.yr.no/place/Norway/Hedmark/Stor-Elvdal/Evenstad/forecast.xml
430	Atna	50	Stor-Elvdal	Hedmark	61.7311	10.8351	http://www.yr.no/stad/Noreg/Hedmark/Stor-Elvdal/Atna/varsel.xml	http://www.yr.no/sted/Norge/Hedmark/Stor-Elvdal/Atna/varsel.xml	http://www.yr.no/place/Norway/Hedmark/Stor-Elvdal/Atna/forecast.xml
430	Sollia	50	Stor-Elvdal	Hedmark	61.7787	10.4012	http://www.yr.no/stad/Noreg/Hedmark/Stor-Elvdal/Sollia/varsel.xml	http://www.yr.no/sted/Norge/Hedmark/Stor-Elvdal/Sollia/varsel.xml	http://www.yr.no/place/Norway/Hedmark/Stor-Elvdal/Sollia/forecast.xml
430	Strand	60	Stor-Elvdal	Hedmark	61.2891	11.2744	http://www.yr.no/stad/Noreg/Hedmark/Stor-Elvdal/Strand/varsel.xml	http://www.yr.no/sted/Norge/Hedmark/Stor-Elvdal/Strand/varsel.xml	http://www.yr.no/place/Norway/Hedmark/Stor-Elvdal/Strand/forecast.xml
432	Bergset	30	Rendalen	Hedmark	61.8877	11.0783	http://www.yr.no/stad/Noreg/Hedmark/Rendalen/Bergset/varsel.xml	http://www.yr.no/sted/Norge/Hedmark/Rendalen/Bergset/varsel.xml	http://www.yr.no/place/Norway/Hedmark/Rendalen/Bergset/forecast.xml
432	Hanestad	50	Rendalen	Hedmark	61.8368	10.8810	http://www.yr.no/stad/Noreg/Hedmark/Rendalen/Hanestad/varsel.xml	http://www.yr.no/sted/Norge/Hedmark/Rendalen/Hanestad/varsel.xml	http://www.yr.no/place/Norway/Hedmark/Rendalen/Hanestad/forecast.xml
432	Finstad	60	Rendalen	Hedmark	62.1032	11.0465	http://www.yr.no/stad/Noreg/Hedmark/Rendalen/Finstad/varsel.xml	http://www.yr.no/sted/Norge/Hedmark/Rendalen/Finstad/varsel.xml	http://www.yr.no/place/Norway/Hedmark/Rendalen/Finstad/forecast.xml
432	Grøsjøen	60	Rendalen	Hedmark	61.5801	11.4846	http://www.yr.no/stad/Noreg/Hedmark/Rendalen/Grøsjøen/varsel.xml	http://www.yr.no/sted/Norge/Hedmark/Rendalen/Grøsjøen/varsel.xml	http://www.yr.no/place/Norway/Hedmark/Rendalen/Grøsjøen/forecast.xml
432	Sjølisand	60	Rendalen	Hedmark	61.4697	11.3237	http://www.yr.no/stad/Noreg/Hedmark/Rendalen/Sjølisand/varsel.xml	http://www.yr.no/sted/Norge/Hedmark/Rendalen/Sjølisand/varsel.xml	http://www.yr.no/place/Norway/Hedmark/Rendalen/Sjølisand/forecast.xml
434	Engerdal	30	Engerdal	Hedmark	61.7562	11.9599	http://www.yr.no/stad/Noreg/Hedmark/Engerdal/Engerdal/varsel.xml	http://www.yr.no/sted/Norge/Hedmark/Engerdal/Engerdal/varsel.xml	http://www.yr.no/place/Norway/Hedmark/Engerdal/Engerdal/forecast.xml
434	Drevsjø	50	Engerdal	Hedmark	61.8832	12.0301	http://www.yr.no/stad/Noreg/Hedmark/Engerdal/Drevsjø/varsel.xml	http://www.yr.no/sted/Norge/Hedmark/Engerdal/Drevsjø/varsel.xml	http://www.yr.no/place/Norway/Hedmark/Engerdal/Drevsjø/forecast.xml
434	Elgå	50	Engerdal	Hedmark	62.1646	11.9433	http://www.yr.no/stad/Noreg/Hedmark/Engerdal/Elgå/varsel.xml	http://www.yr.no/sted/Norge/Hedmark/Engerdal/Elgå/varsel.xml	http://www.yr.no/place/Norway/Hedmark/Engerdal/Elgå/forecast.xml
434	Sømådal	50	Engerdal	Hedmark	62.0973	11.6617	http://www.yr.no/stad/Noreg/Hedmark/Engerdal/Sømådal/varsel.xml	http://www.yr.no/sted/Norge/Hedmark/Engerdal/Sømådal/varsel.xml	http://www.yr.no/place/Norway/Hedmark/Engerdal/Sømådal/forecast.xml
434	Hylleråsen	60	Engerdal	Hedmark	61.6326	12.0348	http://www.yr.no/stad/Noreg/Hedmark/Engerdal/Hylleråsen/varsel.xml	http://www.yr.no/sted/Norge/Hedmark/Engerdal/Hylleråsen/varsel.xml	http://www.yr.no/place/Norway/Hedmark/Engerdal/Hylleråsen/forecast.xml
436	Tolga	30	Tolga	Hedmark	62.4083	10.9981	http://www.yr.no/stad/Noreg/Hedmark/Tolga/Tolga/varsel.xml	http://www.yr.no/sted/Norge/Hedmark/Tolga/Tolga/varsel.xml	http://www.yr.no/place/Norway/Hedmark/Tolga/Tolga/forecast.xml
436	Vingelen	50	Tolga	Hedmark	62.4191	10.8666	http://www.yr.no/stad/Noreg/Hedmark/Tolga/Vingelen/varsel.xml	http://www.yr.no/sted/Norge/Hedmark/Tolga/Vingelen/varsel.xml	http://www.yr.no/place/Norway/Hedmark/Tolga/Vingelen/forecast.xml
436	Øversjødalen	50	Tolga	Hedmark	62.2072	11.4819	http://www.yr.no/stad/Noreg/Hedmark/Tolga/Øversjødalen/varsel.xml	http://www.yr.no/sted/Norge/Hedmark/Tolga/Øversjødalen/varsel.xml	http://www.yr.no/place/Norway/Hedmark/Tolga/Øversjødalen/forecast.xml
436	Hodalen	60	Tolga	Hedmark	62.3605	11.1974	http://www.yr.no/stad/Noreg/Hedmark/Tolga/Hodalen/varsel.xml	http://www.yr.no/sted/Norge/Hedmark/Tolga/Hodalen/varsel.xml	http://www.yr.no/place/Norway/Hedmark/Tolga/Hodalen/forecast.xml
436	Raudsjøen	60	Tolga	Hedmark	62.2343	11.2160	http://www.yr.no/stad/Noreg/Hedmark/Tolga/Raudsjøen/varsel.xml	http://www.yr.no/sted/Norge/Hedmark/Tolga/Raudsjøen/varsel.xml	http://www.yr.no/place/Norway/Hedmark/Tolga/Raudsjøen/forecast.xml
437	Tynset	25	Tynset	Hedmark	62.2723	10.7768	http://www.yr.no/stad/Noreg/Hedmark/Tynset/Tynset/varsel.xml	http://www.yr.no/sted/Norge/Hedmark/Tynset/Tynset/varsel.xml	http://www.yr.no/place/Norway/Hedmark/Tynset/Tynset/forecast.xml
437	Kvikneskogen	50	Tynset	Hedmark	62.4530	10.3789	http://www.yr.no/stad/Noreg/Hedmark/Tynset/Kvikneskogen/varsel.xml	http://www.yr.no/sted/Norge/Hedmark/Tynset/Kvikneskogen/varsel.xml	http://www.yr.no/place/Norway/Hedmark/Tynset/Kvikneskogen/forecast.xml
437	Tylldalen	50	Tynset	Hedmark	62.1009	10.7918	http://www.yr.no/stad/Noreg/Hedmark/Tynset/Tylldalen/varsel.xml	http://www.yr.no/sted/Norge/Hedmark/Tynset/Tylldalen/varsel.xml	http://www.yr.no/place/Norway/Hedmark/Tynset/Tylldalen/forecast.xml
437	Brydalen	60	Tynset	Hedmark	62.1853	10.9905	http://www.yr.no/stad/Noreg/Hedmark/Tynset/Brydalen/varsel.xml	http://www.yr.no/sted/Norge/Hedmark/Tynset/Brydalen/varsel.xml	http://www.yr.no/place/Norway/Hedmark/Tynset/Brydalen/forecast.xml
437	Fåset	60	Tynset	Hedmark	62.2581	10.6696	http://www.yr.no/stad/Noreg/Hedmark/Tynset/Fåset/varsel.xml	http://www.yr.no/sted/Norge/Hedmark/Tynset/Fåset/varsel.xml	http://www.yr.no/place/Norway/Hedmark/Tynset/Fåset/forecast.xml
438	Alvdal	25	Alvdal	Hedmark	62.1069	10.6352	http://www.yr.no/stad/Noreg/Hedmark/Alvdal/Alvdal/varsel.xml	http://www.yr.no/sted/Norge/Hedmark/Alvdal/Alvdal/varsel.xml	http://www.yr.no/place/Norway/Hedmark/Alvdal/Alvdal/forecast.xml
438	Haustsjøen	60	Alvdal	Hedmark	62.1059	10.3446	http://www.yr.no/stad/Noreg/Hedmark/Alvdal/Haustsjøen/varsel.xml	http://www.yr.no/sted/Norge/Hedmark/Alvdal/Haustsjøen/varsel.xml	http://www.yr.no/place/Norway/Hedmark/Alvdal/Haustsjøen/forecast.xml
438	Holmsjøen	60	Alvdal	Hedmark	61.9407	10.2727	http://www.yr.no/stad/Noreg/Hedmark/Alvdal/Holmsjøen/varsel.xml	http://www.yr.no/sted/Norge/Hedmark/Alvdal/Holmsjøen/varsel.xml	http://www.yr.no/place/Norway/Hedmark/Alvdal/Holmsjøen/forecast.xml
438	Plassen	60	Alvdal	Hedmark	62.1290	10.5685	http://www.yr.no/stad/Noreg/Hedmark/Alvdal/Plassen/varsel.xml	http://www.yr.no/sted/Norge/Hedmark/Alvdal/Plassen/varsel.xml	http://www.yr.no/place/Norway/Hedmark/Alvdal/Plassen/forecast.xml
438	Savalen	60	Alvdal	Hedmark	62.2425	10.4631	http://www.yr.no/stad/Noreg/Hedmark/Alvdal/Savalen/varsel.xml	http://www.yr.no/sted/Norge/Hedmark/Alvdal/Savalen/varsel.xml	http://www.yr.no/place/Norway/Hedmark/Alvdal/Savalen/forecast.xml
439	Folldal	30	Folldal	Hedmark	62.1318	9.9975	http://www.yr.no/stad/Noreg/Hedmark/Folldal/Folldal/varsel.xml	http://www.yr.no/sted/Norge/Hedmark/Folldal/Folldal/varsel.xml	http://www.yr.no/place/Norway/Hedmark/Folldal/Folldal/forecast.xml
439	Dalholen	50	Folldal	Hedmark	62.1734	9.8167	http://www.yr.no/stad/Noreg/Hedmark/Folldal/Dalholen/varsel.xml	http://www.yr.no/sted/Norge/Hedmark/Folldal/Dalholen/varsel.xml	http://www.yr.no/place/Norway/Hedmark/Folldal/Dalholen/forecast.xml
439	Grimsbu	50	Folldal	Hedmark	62.1546	10.1735	http://www.yr.no/stad/Noreg/Hedmark/Folldal/Grimsbu/varsel.xml	http://www.yr.no/sted/Norge/Hedmark/Folldal/Grimsbu/varsel.xml	http://www.yr.no/place/Norway/Hedmark/Folldal/Grimsbu/forecast.xml
439	Gruvsætrin	60	Folldal	Hedmark	62.1486	9.9842	http://www.yr.no/stad/Noreg/Hedmark/Folldal/Gruvsætrin/varsel.xml	http://www.yr.no/sted/Norge/Hedmark/Folldal/Gruvsætrin/varsel.xml	http://www.yr.no/place/Norway/Hedmark/Folldal/Gruvsætrin/forecast.xml
439	Kakelldalen	60	Folldal	Hedmark	62.2019	10.0684	http://www.yr.no/stad/Noreg/Hedmark/Folldal/Kakelldalen/varsel.xml	http://www.yr.no/sted/Norge/Hedmark/Folldal/Kakelldalen/varsel.xml	http://www.yr.no/place/Norway/Hedmark/Folldal/Kakelldalen/forecast.xml
441	Os	30	Os	Hedmark	62.4938	11.2321	http://www.yr.no/stad/Noreg/Hedmark/Os/Os/varsel.xml	http://www.yr.no/sted/Norge/Hedmark/Os/Os/varsel.xml	http://www.yr.no/place/Norway/Hedmark/Os/Os/forecast.xml
441	Håmålvoll	50	Os	Hedmark	62.4457	11.1252	http://www.yr.no/stad/Noreg/Hedmark/Os/Håmålvoll/varsel.xml	http://www.yr.no/sted/Norge/Hedmark/Os/Håmålvoll/varsel.xml	http://www.yr.no/place/Norway/Hedmark/Os/Håmålvoll/forecast.xml
441	Tufsingdalen	50	Os	Hedmark	62.2327	11.7800	http://www.yr.no/stad/Noreg/Hedmark/Os/Tufsingdalen/varsel.xml	http://www.yr.no/sted/Norge/Hedmark/Os/Tufsingdalen/varsel.xml	http://www.yr.no/place/Norway/Hedmark/Os/Tufsingdalen/forecast.xml
441	Narbuvoll	60	Os	Hedmark	62.3545	11.4656	http://www.yr.no/stad/Noreg/Hedmark/Os/Narbuvoll/varsel.xml	http://www.yr.no/sted/Norge/Hedmark/Os/Narbuvoll/varsel.xml	http://www.yr.no/place/Norway/Hedmark/Os/Narbuvoll/forecast.xml
441	Narjordet	60	Os	Hedmark	62.4345	11.4098	http://www.yr.no/stad/Noreg/Hedmark/Os/Narjordet/varsel.xml	http://www.yr.no/sted/Norge/Hedmark/Os/Narjordet/varsel.xml	http://www.yr.no/place/Norway/Hedmark/Os/Narjordet/forecast.xml
501	Lillehammer	25	Lillehammer	Oppland	61.1137	10.4667	http://www.yr.no/stad/Noreg/Oppland/Lillehammer/Lillehammer/varsel.xml	http://www.yr.no/sted/Norge/Oppland/Lillehammer/Lillehammer/varsel.xml	http://www.yr.no/place/Norway/Oppland/Lillehammer/Lillehammer/forecast.xml
501	Fåberg	50	Lillehammer	Oppland	61.1680	10.4073	http://www.yr.no/stad/Noreg/Oppland/Lillehammer/Fåberg/varsel.xml	http://www.yr.no/sted/Norge/Oppland/Lillehammer/Fåberg/varsel.xml	http://www.yr.no/place/Norway/Oppland/Lillehammer/Fåberg/forecast.xml
501	Vingrom	50	Lillehammer	Oppland	61.0708	10.4302	http://www.yr.no/stad/Noreg/Oppland/Lillehammer/Vingrom/varsel.xml	http://www.yr.no/sted/Norge/Oppland/Lillehammer/Vingrom/varsel.xml	http://www.yr.no/place/Norway/Oppland/Lillehammer/Vingrom/forecast.xml
501	Gausa	60	Lillehammer	Oppland	61.1560	10.3925	http://www.yr.no/stad/Noreg/Oppland/Lillehammer/Gausa/varsel.xml	http://www.yr.no/sted/Norge/Oppland/Lillehammer/Gausa/varsel.xml	http://www.yr.no/place/Norway/Oppland/Lillehammer/Gausa/forecast.xml
501	Saksumsdal	60	Lillehammer	Oppland	61.1118	10.3069	http://www.yr.no/stad/Noreg/Oppland/Lillehammer/Saksumsdal/varsel.xml	http://www.yr.no/sted/Norge/Oppland/Lillehammer/Saksumsdal/varsel.xml	http://www.yr.no/place/Norway/Oppland/Lillehammer/Saksumsdal/forecast.xml
502	Gjøvik	25	Gjøvik	Oppland	60.7943	10.6919	http://www.yr.no/stad/Noreg/Oppland/Gjøvik/Gjøvik/varsel.xml	http://www.yr.no/sted/Norge/Oppland/Gjøvik/Gjøvik/varsel.xml	http://www.yr.no/place/Norway/Oppland/Gjøvik/Gjøvik/forecast.xml
502	Biri	50	Gjøvik	Oppland	60.9578	10.6081	http://www.yr.no/stad/Noreg/Oppland/Gjøvik/Biri/varsel.xml	http://www.yr.no/sted/Norge/Oppland/Gjøvik/Biri/varsel.xml	http://www.yr.no/place/Norway/Oppland/Gjøvik/Biri/forecast.xml
502	Biristrand	50	Gjøvik	Oppland	60.9884	10.5290	http://www.yr.no/stad/Noreg/Oppland/Gjøvik/Biristrand/varsel.xml	http://www.yr.no/sted/Norge/Oppland/Gjøvik/Biristrand/varsel.xml	http://www.yr.no/place/Norway/Oppland/Gjøvik/Biristrand/forecast.xml
502	Hunndalen	50	Gjøvik	Oppland	60.7849	10.6416	http://www.yr.no/stad/Noreg/Oppland/Gjøvik/Hunndalen/varsel.xml	http://www.yr.no/sted/Norge/Oppland/Gjøvik/Hunndalen/varsel.xml	http://www.yr.no/place/Norway/Oppland/Gjøvik/Hunndalen/forecast.xml
502	Snertingdal	50	Gjøvik	Oppland	60.8788	10.4630	http://www.yr.no/stad/Noreg/Oppland/Gjøvik/Snertingdal/varsel.xml	http://www.yr.no/sted/Norge/Oppland/Gjøvik/Snertingdal/varsel.xml	http://www.yr.no/place/Norway/Oppland/Gjøvik/Snertingdal/forecast.xml
511	Dovre	25	Dovre	Oppland	61.9825	9.2486	http://www.yr.no/stad/Noreg/Oppland/Dovre/Dovre/varsel.xml	http://www.yr.no/sted/Norge/Oppland/Dovre/Dovre/varsel.xml	http://www.yr.no/place/Norway/Oppland/Dovre/Dovre/forecast.xml
511	Fokstugu	40	Dovre	Oppland	62.1124	9.2876	http://www.yr.no/stad/Noreg/Oppland/Dovre/Fokstugu/varsel.xml	http://www.yr.no/sted/Norge/Oppland/Dovre/Fokstugu/varsel.xml	http://www.yr.no/place/Norway/Oppland/Dovre/Fokstugu/forecast.xml
511	Dombås	50	Dovre	Oppland	62.0683	9.1229	http://www.yr.no/stad/Noreg/Oppland/Dovre/Dombås/varsel.xml	http://www.yr.no/sted/Norge/Oppland/Dovre/Dombås/varsel.xml	http://www.yr.no/place/Norway/Oppland/Dovre/Dombås/forecast.xml
511	Dovreskogen	50	Dovre	Oppland	61.9189	9.3390	http://www.yr.no/stad/Noreg/Oppland/Dovre/Dovreskogen/varsel.xml	http://www.yr.no/sted/Norge/Oppland/Dovre/Dovreskogen/varsel.xml	http://www.yr.no/place/Norway/Oppland/Dovre/Dovreskogen/forecast.xml
511	Hjerkinn	50	Dovre	Oppland	62.2216	9.5507	http://www.yr.no/stad/Noreg/Oppland/Dovre/Hjerkinn/varsel.xml	http://www.yr.no/sted/Norge/Oppland/Dovre/Hjerkinn/varsel.xml	http://www.yr.no/place/Norway/Oppland/Dovre/Hjerkinn/forecast.xml
512	Lesja	30	Lesja	Oppland	62.1163	8.8632	http://www.yr.no/stad/Noreg/Oppland/Lesja/Lesja/varsel.xml	http://www.yr.no/sted/Norge/Oppland/Lesja/Lesja/varsel.xml	http://www.yr.no/place/Norway/Oppland/Lesja/Lesja/forecast.xml
512	Kjøremsgrende	40	Lesja	Oppland	62.0926	9.0506	http://www.yr.no/stad/Noreg/Oppland/Lesja/Kjøremsgrende/varsel.xml	http://www.yr.no/sted/Norge/Oppland/Lesja/Kjøremsgrende/varsel.xml	http://www.yr.no/place/Norway/Oppland/Lesja/Kjøremsgrende/forecast.xml
512	Bjorli	50	Lesja	Oppland	62.2570	8.2021	http://www.yr.no/stad/Noreg/Oppland/Lesja/Bjorli/varsel.xml	http://www.yr.no/sted/Norge/Oppland/Lesja/Bjorli/varsel.xml	http://www.yr.no/place/Norway/Oppland/Lesja/Bjorli/forecast.xml
512	Lesjaskog	50	Lesja	Oppland	62.2311	8.3572	http://www.yr.no/stad/Noreg/Oppland/Lesja/Lesjaskog/varsel.xml	http://www.yr.no/sted/Norge/Oppland/Lesja/Lesjaskog/varsel.xml	http://www.yr.no/place/Norway/Oppland/Lesja/Lesjaskog/forecast.xml
512	Lora	50	Lesja	Oppland	62.1468	8.6874	http://www.yr.no/stad/Noreg/Oppland/Lesja/Lora/varsel.xml	http://www.yr.no/sted/Norge/Oppland/Lesja/Lora/varsel.xml	http://www.yr.no/place/Norway/Oppland/Lesja/Lora/forecast.xml
513	Bismo	30	Skjåk	Oppland	61.8824	8.2697	http://www.yr.no/stad/Noreg/Oppland/Skjåk/Bismo/varsel.xml	http://www.yr.no/sted/Norge/Oppland/Skjåk/Bismo/varsel.xml	http://www.yr.no/place/Norway/Oppland/Skjåk/Bismo/forecast.xml
513	Grotli	50	Skjåk	Oppland	62.0120	7.6310	http://www.yr.no/stad/Noreg/Oppland/Skjåk/Grotli/varsel.xml	http://www.yr.no/sted/Norge/Oppland/Skjåk/Grotli/varsel.xml	http://www.yr.no/place/Norway/Oppland/Skjåk/Grotli/forecast.xml
513	Nordberg	50	Skjåk	Oppland	61.9042	8.1550	http://www.yr.no/stad/Noreg/Oppland/Skjåk/Nordberg/varsel.xml	http://www.yr.no/sted/Norge/Oppland/Skjåk/Nordberg/varsel.xml	http://www.yr.no/place/Norway/Oppland/Skjåk/Nordberg/forecast.xml
513	Dørtjørnin	60	Skjåk	Oppland	62.1125	7.9543	http://www.yr.no/stad/Noreg/Oppland/Skjåk/Dørtjørnin/varsel.xml	http://www.yr.no/sted/Norge/Oppland/Skjåk/Dørtjørnin/varsel.xml	http://www.yr.no/place/Norway/Oppland/Skjåk/Dørtjørnin/forecast.xml
513	Sota sæter	60	Skjåk	Oppland	61.8083	7.7113	http://www.yr.no/stad/Noreg/Oppland/Skjåk/Sota_sæter/varsel.xml	http://www.yr.no/sted/Norge/Oppland/Skjåk/Sota_sæter/varsel.xml	http://www.yr.no/place/Norway/Oppland/Skjåk/Sota_sæter/forecast.xml
514	Fossbergom	30	Lom	Oppland	61.8362	8.5690	http://www.yr.no/stad/Noreg/Oppland/Lom/Fossbergom/varsel.xml	http://www.yr.no/sted/Norge/Oppland/Lom/Fossbergom/varsel.xml	http://www.yr.no/place/Norway/Oppland/Lom/Fossbergom/forecast.xml
514	Sognefjellhytta	30	Lom	Oppland	61.5632	7.9986	http://www.yr.no/stad/Noreg/Oppland/Lom/Sognefjellhytta/varsel.xml	http://www.yr.no/sted/Norge/Oppland/Lom/Sognefjellhytta/varsel.xml	http://www.yr.no/place/Norway/Oppland/Lom/Sognefjellhytta/forecast.xml
514	Bøverdalen	50	Lom	Oppland	61.7256	8.3467	http://www.yr.no/stad/Noreg/Oppland/Lom/Bøverdalen/varsel.xml	http://www.yr.no/sted/Norge/Oppland/Lom/Bøverdalen/varsel.xml	http://www.yr.no/place/Norway/Oppland/Lom/Bøverdalen/forecast.xml
514	Garmo	50	Lom	Oppland	61.8459	8.8051	http://www.yr.no/stad/Noreg/Oppland/Lom/Garmo/varsel.xml	http://www.yr.no/sted/Norge/Oppland/Lom/Garmo/varsel.xml	http://www.yr.no/place/Norway/Oppland/Lom/Garmo/forecast.xml
514	Juvasshytta	60	Lom	Oppland	61.6709	8.3719	http://www.yr.no/stad/Noreg/Oppland/Lom/Juvasshytta/varsel.xml	http://www.yr.no/sted/Norge/Oppland/Lom/Juvasshytta/varsel.xml	http://www.yr.no/place/Norway/Oppland/Lom/Juvasshytta/forecast.xml
515	Vågåmo	30	Vågå	Oppland	61.8735	9.0972	http://www.yr.no/stad/Noreg/Oppland/Vågå/Vågåmo/varsel.xml	http://www.yr.no/sted/Norge/Oppland/Vågå/Vågåmo/varsel.xml	http://www.yr.no/place/Norway/Oppland/Vågå/Vågåmo/forecast.xml
515	Lalm	50	Vågå	Oppland	61.8147	9.2773	http://www.yr.no/stad/Noreg/Oppland/Vågå/Lalm/varsel.xml	http://www.yr.no/sted/Norge/Oppland/Vågå/Lalm/varsel.xml	http://www.yr.no/place/Norway/Oppland/Vågå/Lalm/forecast.xml
515	Tessand	50	Vågå	Oppland	61.8460	8.9634	http://www.yr.no/stad/Noreg/Oppland/Vågå/Tessand/varsel.xml	http://www.yr.no/sted/Norge/Oppland/Vågå/Tessand/varsel.xml	http://www.yr.no/place/Norway/Oppland/Vågå/Tessand/forecast.xml
515	Brennum	60	Vågå	Oppland	61.7970	9.2052	http://www.yr.no/stad/Noreg/Oppland/Vågå/Brennum/varsel.xml	http://www.yr.no/sted/Norge/Oppland/Vågå/Brennum/varsel.xml	http://www.yr.no/place/Norway/Oppland/Vågå/Brennum/forecast.xml
515	Krossdalen	60	Vågå	Oppland	61.8317	9.0080	http://www.yr.no/stad/Noreg/Oppland/Vågå/Krossdalen/varsel.xml	http://www.yr.no/sted/Norge/Oppland/Vågå/Krossdalen/varsel.xml	http://www.yr.no/place/Norway/Oppland/Vågå/Krossdalen/forecast.xml
516	Vinstra	30	Nord-Fron	Oppland	61.5936	9.7528	http://www.yr.no/stad/Noreg/Oppland/Nord-Fron/Vinstra/varsel.xml	http://www.yr.no/sted/Norge/Oppland/Nord-Fron/Vinstra/varsel.xml	http://www.yr.no/place/Norway/Oppland/Nord-Fron/Vinstra/forecast.xml
516	Kvam	50	Nord-Fron	Oppland	61.6648	9.6887	http://www.yr.no/stad/Noreg/Oppland/Nord-Fron/Kvam/varsel.xml	http://www.yr.no/sted/Norge/Oppland/Nord-Fron/Kvam/varsel.xml	http://www.yr.no/place/Norway/Oppland/Nord-Fron/Kvam/forecast.xml
516	Skåbu	50	Nord-Fron	Oppland	61.5279	9.4167	http://www.yr.no/stad/Noreg/Oppland/Nord-Fron/Skåbu/varsel.xml	http://www.yr.no/sted/Norge/Oppland/Nord-Fron/Skåbu/varsel.xml	http://www.yr.no/place/Norway/Oppland/Nord-Fron/Skåbu/forecast.xml
516	Sødorp	60	Nord-Fron	Oppland	61.5873	9.7803	http://www.yr.no/stad/Noreg/Oppland/Nord-Fron/Sødorp/varsel.xml	http://www.yr.no/sted/Norge/Oppland/Nord-Fron/Sødorp/varsel.xml	http://www.yr.no/place/Norway/Oppland/Nord-Fron/Sødorp/forecast.xml
516	Bukkebu	60	Nord-Fron	Oppland	61.5979	9.4160	http://www.yr.no/stad/Noreg/Oppland/Nord-Fron/Bukkebu/varsel.xml	http://www.yr.no/sted/Norge/Oppland/Nord-Fron/Bukkebu/varsel.xml	http://www.yr.no/place/Norway/Oppland/Nord-Fron/Bukkebu/forecast.xml
517	Otta	25	Sel	Oppland	61.7697	9.5358	http://www.yr.no/stad/Noreg/Oppland/Sel/Otta/varsel.xml	http://www.yr.no/sted/Norge/Oppland/Sel/Otta/varsel.xml	http://www.yr.no/place/Norway/Oppland/Sel/Otta/forecast.xml
517	Heidal	50	Sel	Oppland	61.7571	9.2867	http://www.yr.no/stad/Noreg/Oppland/Sel/Heidal/varsel.xml	http://www.yr.no/sted/Norge/Oppland/Sel/Heidal/varsel.xml	http://www.yr.no/place/Norway/Oppland/Sel/Heidal/forecast.xml
517	Mysusæter	50	Sel	Oppland	61.8109	9.6825	http://www.yr.no/stad/Noreg/Oppland/Sel/Mysusæter/varsel.xml	http://www.yr.no/sted/Norge/Oppland/Sel/Mysusæter/varsel.xml	http://www.yr.no/place/Norway/Oppland/Sel/Mysusæter/forecast.xml
517	Sel	50	Sel	Oppland	61.7713	9.5346	http://www.yr.no/stad/Noreg/Oppland/Sel/Sel/varsel.xml	http://www.yr.no/sted/Norge/Oppland/Sel/Sel/varsel.xml	http://www.yr.no/place/Norway/Oppland/Sel/Sel/forecast.xml
517	Sjoa	60	Sel	Oppland	61.6794	9.5452	http://www.yr.no/stad/Noreg/Oppland/Sel/Sjoa/varsel.xml	http://www.yr.no/sted/Norge/Oppland/Sel/Sjoa/varsel.xml	http://www.yr.no/place/Norway/Oppland/Sel/Sjoa/forecast.xml
519	Hundorp	30	Sør-Fron	Oppland	61.5537	9.9411	http://www.yr.no/stad/Noreg/Oppland/Sør-Fron/Hundorp/varsel.xml	http://www.yr.no/sted/Norge/Oppland/Sør-Fron/Hundorp/varsel.xml	http://www.yr.no/place/Norway/Oppland/Sør-Fron/Hundorp/forecast.xml
519	Espedalen	50	Sør-Fron	Oppland	61.4248	9.4948	http://www.yr.no/stad/Noreg/Oppland/Sør-Fron/Espedalen/varsel.xml	http://www.yr.no/sted/Norge/Oppland/Sør-Fron/Espedalen/varsel.xml	http://www.yr.no/place/Norway/Oppland/Sør-Fron/Espedalen/forecast.xml
519	Gålå	50	Sør-Fron	Oppland	61.5041	9.7862	http://www.yr.no/stad/Noreg/Oppland/Sør-Fron/Gålå/varsel.xml	http://www.yr.no/sted/Norge/Oppland/Sør-Fron/Gålå/varsel.xml	http://www.yr.no/place/Norway/Oppland/Sør-Fron/Gålå/forecast.xml
519	Eldå	60	Sør-Fron	Oppland	61.7682	9.9722	http://www.yr.no/stad/Noreg/Oppland/Sør-Fron/Eldå/varsel.xml	http://www.yr.no/sted/Norge/Oppland/Sør-Fron/Eldå/varsel.xml	http://www.yr.no/place/Norway/Oppland/Sør-Fron/Eldå/forecast.xml
519	Lauvåsen	60	Sør-Fron	Oppland	61.4516	9.8721	http://www.yr.no/stad/Noreg/Oppland/Sør-Fron/Lauvåsen/varsel.xml	http://www.yr.no/sted/Norge/Oppland/Sør-Fron/Lauvåsen/varsel.xml	http://www.yr.no/place/Norway/Oppland/Sør-Fron/Lauvåsen/forecast.xml
520	Ringebu	30	Ringebu	Oppland	61.5283	10.1422	http://www.yr.no/stad/Noreg/Oppland/Ringebu/Ringebu/varsel.xml	http://www.yr.no/sted/Norge/Oppland/Ringebu/Ringebu/varsel.xml	http://www.yr.no/place/Norway/Oppland/Ringebu/Ringebu/forecast.xml
520	Kvitfjell	40	Ringebu	Oppland	61.4712	10.1678	http://www.yr.no/stad/Noreg/Oppland/Ringebu/Kvitfjell/varsel.xml	http://www.yr.no/sted/Norge/Oppland/Ringebu/Kvitfjell/varsel.xml	http://www.yr.no/place/Norway/Oppland/Ringebu/Kvitfjell/forecast.xml
520	Fåvang	50	Ringebu	Oppland	61.4550	10.1952	http://www.yr.no/stad/Noreg/Oppland/Ringebu/Fåvang/varsel.xml	http://www.yr.no/sted/Norge/Oppland/Ringebu/Fåvang/varsel.xml	http://www.yr.no/place/Norway/Oppland/Ringebu/Fåvang/forecast.xml
520	Venabygd	50	Ringebu	Oppland	61.5910	10.0529	http://www.yr.no/stad/Noreg/Oppland/Ringebu/Venabygd/varsel.xml	http://www.yr.no/sted/Norge/Oppland/Ringebu/Venabygd/varsel.xml	http://www.yr.no/place/Norway/Oppland/Ringebu/Venabygd/forecast.xml
520	Gullhaugsætra	60	Ringebu	Oppland	61.4185	10.3896	http://www.yr.no/stad/Noreg/Oppland/Ringebu/Gullhaugsætra/varsel.xml	http://www.yr.no/sted/Norge/Oppland/Ringebu/Gullhaugsætra/varsel.xml	http://www.yr.no/place/Norway/Oppland/Ringebu/Gullhaugsætra/forecast.xml
521	Tretten	30	Øyer	Oppland	61.3127	10.3011	http://www.yr.no/stad/Noreg/Oppland/Øyer/Tretten/varsel.xml	http://www.yr.no/sted/Norge/Oppland/Øyer/Tretten/varsel.xml	http://www.yr.no/place/Norway/Oppland/Øyer/Tretten/forecast.xml
521	Øyer	50	Øyer	Oppland	61.2635	10.4134	http://www.yr.no/stad/Noreg/Oppland/Øyer/Øyer/varsel.xml	http://www.yr.no/sted/Norge/Oppland/Øyer/Øyer/varsel.xml	http://www.yr.no/place/Norway/Oppland/Øyer/Øyer/forecast.xml
521	Holmsætra	60	Øyer	Oppland	61.3276	10.4181	http://www.yr.no/stad/Noreg/Oppland/Øyer/Holmsætra/varsel.xml	http://www.yr.no/sted/Norge/Oppland/Øyer/Holmsætra/varsel.xml	http://www.yr.no/place/Norway/Oppland/Øyer/Holmsætra/forecast.xml
521	Granrudmoen	60	Øyer	Oppland	61.2436	10.4400	http://www.yr.no/stad/Noreg/Oppland/Øyer/Granrudmoen/varsel.xml	http://www.yr.no/sted/Norge/Oppland/Øyer/Granrudmoen/varsel.xml	http://www.yr.no/place/Norway/Oppland/Øyer/Granrudmoen/forecast.xml
521	Vålsjøen	60	Øyer	Oppland	61.3737	10.4610	http://www.yr.no/stad/Noreg/Oppland/Øyer/Vålsjøen/varsel.xml	http://www.yr.no/sted/Norge/Oppland/Øyer/Vålsjøen/varsel.xml	http://www.yr.no/place/Norway/Oppland/Øyer/Vålsjøen/forecast.xml
522	Espedal	30	Gausdal	Oppland	59.5245	5.9431	http://www.yr.no/stad/Noreg/Oppland/Gausdal/Espedal/varsel.xml	http://www.yr.no/sted/Norge/Oppland/Gausdal/Espedal/varsel.xml	http://www.yr.no/place/Norway/Oppland/Gausdal/Espedal/forecast.xml
522	Follebu	50	Gausdal	Oppland	61.2167	10.2791	http://www.yr.no/stad/Noreg/Oppland/Gausdal/Follebu/varsel.xml	http://www.yr.no/sted/Norge/Oppland/Gausdal/Follebu/varsel.xml	http://www.yr.no/place/Norway/Oppland/Gausdal/Follebu/forecast.xml
522	Svatsum	50	Gausdal	Oppland	61.3176	9.8562	http://www.yr.no/stad/Noreg/Oppland/Gausdal/Svatsum/varsel.xml	http://www.yr.no/sted/Norge/Oppland/Gausdal/Svatsum/varsel.xml	http://www.yr.no/place/Norway/Oppland/Gausdal/Svatsum/forecast.xml
522	Svingvoll	50	Gausdal	Oppland	61.2920	10.1858	http://www.yr.no/stad/Noreg/Oppland/Gausdal/Svingvoll/varsel.xml	http://www.yr.no/sted/Norge/Oppland/Gausdal/Svingvoll/varsel.xml	http://www.yr.no/place/Norway/Oppland/Gausdal/Svingvoll/forecast.xml
522	Vestre Gausdal	50	Gausdal	Oppland	61.1986	10.1479	http://www.yr.no/stad/Noreg/Oppland/Gausdal/Vestre_Gausdal/varsel.xml	http://www.yr.no/sted/Norge/Oppland/Gausdal/Vestre_Gausdal/varsel.xml	http://www.yr.no/place/Norway/Oppland/Gausdal/Vestre_Gausdal/forecast.xml
528	Lena	30	Østre Toten	Oppland	60.6732	10.8136	http://www.yr.no/stad/Noreg/Oppland/Østre_Toten/Lena/varsel.xml	http://www.yr.no/sted/Norge/Oppland/Østre_Toten/Lena/varsel.xml	http://www.yr.no/place/Norway/Oppland/Østre_Toten/Lena/forecast.xml
528	Kapp	50	Østre Toten	Oppland	60.7128	10.8581	http://www.yr.no/stad/Noreg/Oppland/Østre_Toten/Kapp/varsel.xml	http://www.yr.no/sted/Norge/Oppland/Østre_Toten/Kapp/varsel.xml	http://www.yr.no/place/Norway/Oppland/Østre_Toten/Kapp/forecast.xml
528	Kolbu	50	Østre Toten	Oppland	60.6487	10.7459	http://www.yr.no/stad/Noreg/Oppland/Østre_Toten/Kolbu/varsel.xml	http://www.yr.no/sted/Norge/Oppland/Østre_Toten/Kolbu/varsel.xml	http://www.yr.no/place/Norway/Oppland/Østre_Toten/Kolbu/forecast.xml
528	Skreia	50	Østre Toten	Oppland	60.6511	10.9359	http://www.yr.no/stad/Noreg/Oppland/Østre_Toten/Skreia/varsel.xml	http://www.yr.no/sted/Norge/Oppland/Østre_Toten/Skreia/varsel.xml	http://www.yr.no/place/Norway/Oppland/Østre_Toten/Skreia/forecast.xml
528	Høversjøen	60	Østre Toten	Oppland	60.5054	10.9027	http://www.yr.no/stad/Noreg/Oppland/Østre_Toten/Høversjøen/varsel.xml	http://www.yr.no/sted/Norge/Oppland/Østre_Toten/Høversjøen/varsel.xml	http://www.yr.no/place/Norway/Oppland/Østre_Toten/Høversjøen/forecast.xml
529	Raufoss	30	Vestre Toten	Oppland	60.7249	10.6175	http://www.yr.no/stad/Noreg/Oppland/Vestre_Toten/Raufoss/varsel.xml	http://www.yr.no/sted/Norge/Oppland/Vestre_Toten/Raufoss/varsel.xml	http://www.yr.no/place/Norway/Oppland/Vestre_Toten/Raufoss/forecast.xml
529	Bøverbru	50	Vestre Toten	Oppland	60.6637	10.6736	http://www.yr.no/stad/Noreg/Oppland/Vestre_Toten/Bøverbru/varsel.xml	http://www.yr.no/sted/Norge/Oppland/Vestre_Toten/Bøverbru/varsel.xml	http://www.yr.no/place/Norway/Oppland/Vestre_Toten/Bøverbru/forecast.xml
529	Eina	50	Vestre Toten	Oppland	60.6267	10.6004	http://www.yr.no/stad/Noreg/Oppland/Vestre_Toten/Eina/varsel.xml	http://www.yr.no/sted/Norge/Oppland/Vestre_Toten/Eina/varsel.xml	http://www.yr.no/place/Norway/Oppland/Vestre_Toten/Eina/forecast.xml
529	Reinsvoll	50	Vestre Toten	Oppland	60.6773	10.6171	http://www.yr.no/stad/Noreg/Oppland/Vestre_Toten/Reinsvoll/varsel.xml	http://www.yr.no/sted/Norge/Oppland/Vestre_Toten/Reinsvoll/varsel.xml	http://www.yr.no/place/Norway/Oppland/Vestre_Toten/Reinsvoll/forecast.xml
532	Jevnaker	30	Jevnaker	Oppland	60.2392	10.3863	http://www.yr.no/stad/Noreg/Oppland/Jevnaker/Jevnaker/varsel.xml	http://www.yr.no/sted/Norge/Oppland/Jevnaker/Jevnaker/varsel.xml	http://www.yr.no/place/Norway/Oppland/Jevnaker/Jevnaker/forecast.xml
532	Bjertnes	60	Jevnaker	Oppland	60.3082	10.3868	http://www.yr.no/stad/Noreg/Oppland/Jevnaker/Bjertnes/varsel.xml	http://www.yr.no/sted/Norge/Oppland/Jevnaker/Bjertnes/varsel.xml	http://www.yr.no/place/Norway/Oppland/Jevnaker/Bjertnes/forecast.xml
532	Halvorsbøle	60	Jevnaker	Oppland	60.3376	10.3572	http://www.yr.no/stad/Noreg/Oppland/Jevnaker/Halvorsbøle/varsel.xml	http://www.yr.no/sted/Norge/Oppland/Jevnaker/Halvorsbøle/varsel.xml	http://www.yr.no/place/Norway/Oppland/Jevnaker/Halvorsbøle/forecast.xml
532	Samsjøberga	60	Jevnaker	Oppland	60.3711	10.2273	http://www.yr.no/stad/Noreg/Oppland/Jevnaker/Samsjøberga/varsel.xml	http://www.yr.no/sted/Norge/Oppland/Jevnaker/Samsjøberga/varsel.xml	http://www.yr.no/place/Norway/Oppland/Jevnaker/Samsjøberga/forecast.xml
532	Tverrsjøen	60	Jevnaker	Oppland	60.2027	10.5223	http://www.yr.no/stad/Noreg/Oppland/Jevnaker/Tverrsjøen/varsel.xml	http://www.yr.no/sted/Norge/Oppland/Jevnaker/Tverrsjøen/varsel.xml	http://www.yr.no/place/Norway/Oppland/Jevnaker/Tverrsjøen/forecast.xml
533	Roa	30	Lunner	Oppland	60.2895	10.6162	http://www.yr.no/stad/Noreg/Oppland/Lunner/Roa/varsel.xml	http://www.yr.no/sted/Norge/Oppland/Lunner/Roa/varsel.xml	http://www.yr.no/place/Norway/Oppland/Lunner/Roa/forecast.xml
533	Grindvoll	50	Lunner	Oppland	60.2948	10.4897	http://www.yr.no/stad/Noreg/Oppland/Lunner/Grindvoll/varsel.xml	http://www.yr.no/sted/Norge/Oppland/Lunner/Grindvoll/varsel.xml	http://www.yr.no/place/Norway/Oppland/Lunner/Grindvoll/forecast.xml
533	Grua	50	Lunner	Oppland	60.2581	10.6637	http://www.yr.no/stad/Noreg/Oppland/Lunner/Grua/varsel.xml	http://www.yr.no/sted/Norge/Oppland/Lunner/Grua/varsel.xml	http://www.yr.no/place/Norway/Oppland/Lunner/Grua/forecast.xml
533	Harestua	50	Lunner	Oppland	60.1962	10.7163	http://www.yr.no/stad/Noreg/Oppland/Lunner/Harestua/varsel.xml	http://www.yr.no/sted/Norge/Oppland/Lunner/Harestua/varsel.xml	http://www.yr.no/place/Norway/Oppland/Lunner/Harestua/forecast.xml
533	Lunner	50	Lunner	Oppland	60.2932	10.6090	http://www.yr.no/stad/Noreg/Oppland/Lunner/Lunner/varsel.xml	http://www.yr.no/sted/Norge/Oppland/Lunner/Lunner/varsel.xml	http://www.yr.no/place/Norway/Oppland/Lunner/Lunner/forecast.xml
534	Jaren	30	Gran	Oppland	60.3913	10.5619	http://www.yr.no/stad/Noreg/Oppland/Gran/Jaren/varsel.xml	http://www.yr.no/sted/Norge/Oppland/Gran/Jaren/varsel.xml	http://www.yr.no/place/Norway/Oppland/Gran/Jaren/forecast.xml
534	Bjoneroa	50	Gran	Oppland	60.5228	10.2846	http://www.yr.no/stad/Noreg/Oppland/Gran/Bjoneroa/varsel.xml	http://www.yr.no/sted/Norge/Oppland/Gran/Bjoneroa/varsel.xml	http://www.yr.no/place/Norway/Oppland/Gran/Bjoneroa/forecast.xml
534	Brandbu	50	Gran	Oppland	60.4211	10.5038	http://www.yr.no/stad/Noreg/Oppland/Gran/Brandbu/varsel.xml	http://www.yr.no/sted/Norge/Oppland/Gran/Brandbu/varsel.xml	http://www.yr.no/place/Norway/Oppland/Gran/Brandbu/forecast.xml
534	Gran	50	Gran	Oppland	60.3913	10.5604	http://www.yr.no/stad/Noreg/Oppland/Gran/Gran/varsel.xml	http://www.yr.no/sted/Norge/Oppland/Gran/Gran/varsel.xml	http://www.yr.no/place/Norway/Oppland/Gran/Gran/forecast.xml
534	Tingelstad	60	Gran	Oppland	60.3937	10.4863	http://www.yr.no/stad/Noreg/Oppland/Gran/Tingelstad/varsel.xml	http://www.yr.no/sted/Norge/Oppland/Gran/Tingelstad/varsel.xml	http://www.yr.no/place/Norway/Oppland/Gran/Tingelstad/forecast.xml
536	Hov	30	Søndre Land	Oppland	60.6972	10.3523	http://www.yr.no/stad/Noreg/Oppland/Søndre_Land/Hov/varsel.xml	http://www.yr.no/sted/Norge/Oppland/Søndre_Land/Hov/varsel.xml	http://www.yr.no/place/Norway/Oppland/Søndre_Land/Hov/forecast.xml
536	Enger	50	Søndre Land	Oppland	60.5786	10.3342	http://www.yr.no/stad/Noreg/Oppland/Søndre_Land/Enger/varsel.xml	http://www.yr.no/sted/Norge/Oppland/Søndre_Land/Enger/varsel.xml	http://www.yr.no/place/Norway/Oppland/Søndre_Land/Enger/forecast.xml
536	Fall	50	Søndre Land	Oppland	60.6703	10.3638	http://www.yr.no/stad/Noreg/Oppland/Søndre_Land/Fall/varsel.xml	http://www.yr.no/sted/Norge/Oppland/Søndre_Land/Fall/varsel.xml	http://www.yr.no/place/Norway/Oppland/Søndre_Land/Fall/forecast.xml
536	Fluberg	50	Søndre Land	Oppland	60.7745	10.2460	http://www.yr.no/stad/Noreg/Oppland/Søndre_Land/Fluberg/varsel.xml	http://www.yr.no/sted/Norge/Oppland/Søndre_Land/Fluberg/varsel.xml	http://www.yr.no/place/Norway/Oppland/Søndre_Land/Fluberg/forecast.xml
536	Odnes	50	Søndre Land	Oppland	60.8018	10.1707	http://www.yr.no/stad/Noreg/Oppland/Søndre_Land/Odnes/varsel.xml	http://www.yr.no/sted/Norge/Oppland/Søndre_Land/Odnes/varsel.xml	http://www.yr.no/place/Norway/Oppland/Søndre_Land/Odnes/forecast.xml
538	Dokka	30	Nordre Land	Oppland	60.8385	10.0622	http://www.yr.no/stad/Noreg/Oppland/Nordre_Land/Dokka/varsel.xml	http://www.yr.no/sted/Norge/Oppland/Nordre_Land/Dokka/varsel.xml	http://www.yr.no/place/Norway/Oppland/Nordre_Land/Dokka/forecast.xml
538	Vest-Torpa	40	Nordre Land	Oppland	60.9471	10.0327	http://www.yr.no/stad/Noreg/Oppland/Nordre_Land/Vest-Torpa/varsel.xml	http://www.yr.no/sted/Norge/Oppland/Nordre_Land/Vest-Torpa/varsel.xml	http://www.yr.no/place/Norway/Oppland/Nordre_Land/Vest-Torpa/forecast.xml
538	Aust-Torpa	50	Nordre Land	Oppland	60.9490	10.1394	http://www.yr.no/stad/Noreg/Oppland/Nordre_Land/Aust-Torpa/varsel.xml	http://www.yr.no/sted/Norge/Oppland/Nordre_Land/Aust-Torpa/varsel.xml	http://www.yr.no/place/Norway/Oppland/Nordre_Land/Aust-Torpa/forecast.xml
538	Nord-Torpa	50	Nordre Land	Oppland	61.0113	9.9192	http://www.yr.no/stad/Noreg/Oppland/Nordre_Land/Nord-Torpa/varsel.xml	http://www.yr.no/sted/Norge/Oppland/Nordre_Land/Nord-Torpa/varsel.xml	http://www.yr.no/place/Norway/Oppland/Nordre_Land/Nord-Torpa/forecast.xml
